[
  {
    "name": "Saigon Psychub - Phòng Tâm Lý Sài Gòn",
    "address": "AQua 2, Vinhomes Golden River Sài Gòn, Aqua 2, Bến Nghé, Quận 1, Thành phố Hồ Chí Minh, Việt Nam",
    "rating": 4.8,
    "reviews": 32,
    "phone": "+84 866 045 054",
    "website": "http://www.psychub.vn/",
    "category": "Người chữa bệnh bằng liệu pháp tâm lý",
    "google_maps_url": null,
    "latitude": 10.786598,
    "longitude": 106.711207
  },
  {
    "name": "VIỆN TƯ VẤN TÂM LÝ SUNNYCARE (trực tiếp hoặc online)",
    "address": "Landmark Plus, 208 Nguyễn Hữu Cảnh, Phường 22, Bình Thạnh, Thành phố Hồ Chí Minh 700000, Việt Nam",
    "rating": 4.6,
    "reviews": 103,
    "phone": "+84 28 7300 6848",
    "website": "https://sunnycare.vn/",
    "category": "Nhà tâm lý học",
    "google_maps_url": null,
    "latitude": 10.7955661,
    "longitude": 106.7192086
  },
  {
    "name": "Saigon Psychology & Co",
    "address": "190 Nguyễn Văn Hưởng, Thảo Điền, Thủ Đức, Thành phố Hồ Chí Minh 700000, Việt Nam",
    "rating": 1,
    "reviews": 1,
    "phone": "+84 798 263 167",
    "website": "http://www.saigonpsychology.com/",
    "category": "Nhà tâm lý học",
    "google_maps_url": null,
    "latitude": 10.816176299999999,
    "longitude": 106.7307893
  },
  {
    "name": "Tranquil Therapy Private Practice",
    "address": "158 Nguyễn Văn Thủ, Đa Kao, Quận 1, Thành phố Hồ Chí Minh 70000, Việt Nam",
    "rating": 5,
    "reviews": 2,
    "phone": null,
    "website": "http://www.tamly.org/",
    "category": "Nhà tâm lý học",
    "google_maps_url": null,
    "latitude": 10.787799,
    "longitude": 106.696922
  },
  {
    "name": "HAPPY PARENTING - Tâm lý Trẻ em & Gia đình",
    "address": "Tầng hầm Basement, 29 Đ. Số 10, Khu đô thị Sala, Thủ Đức, Thành phố Hồ Chí Minh 700000, Việt Nam",
    "rating": 5,
    "reviews": 12,
    "phone": "+84 377 727 368",
    "website": "https://happyparenting.vn/",
    "category": "Nhà tâm lý học",
    "google_maps_url": null,
    "latitude": 10.7721623,
    "longitude": 106.7266799
  },
  {
    "name": "Hero’s Journey Therapy",
    "address": null,
    "rating": 4.5,
    "reviews": 13,
    "phone": "+84 783 450 380",
    "website": "https://herosjourneytherapy.com/",
    "category": "Người chữa bệnh bằng liệu pháp tâm lý",
    "google_maps_url": null,
    "latitude": 15.793925199999999,
    "longitude": 105.9102332
  },
  {
    "name": "Trung tâm tham vấn, tư vấn tâm lý MindCare",
    "address": "35 Hoàng Diệu, Phường 13, Quận 4, Thành phố Hồ Chí Minh, Việt Nam",
    "rating": 4.7,
    "reviews": 15,
    "phone": "+84 866 135 885",
    "website": "https://mindcare.vn/",
    "category": "Nhà tâm lý học",
    "google_maps_url": null,
    "latitude": 10.764792,
    "longitude": 106.706949
  },
  {
    "name": "An Huỳnh Psychotherapy",
    "address": "158 Nguyễn Văn Thủ, Đa Kao, Quận 1, Thành phố Hồ Chí Minh 700000, Việt Nam",
    "rating": 5,
    "reviews": 4,
    "phone": "+84 386 590 400",
    "website": "https://anhuynhtherapy.com/",
    "category": "Người chữa bệnh bằng liệu pháp tâm lý",
    "google_maps_url": null,
    "latitude": 10.787799399999999,
    "longitude": 106.6969218
  },
  {
    "name": "Vietnam Institute of Psychology",
    "address": "9D8 Siagon Pearl Villas, 92 Nguyễn Hữu Cảnh, Ward 22, Bình Thạnh, Thành phố Hồ Chí Minh 72324, Việt Nam",
    "rating": 5,
    "reviews": 2,
    "phone": "+84 28 7303 9848",
    "website": "http://www.vietnampsychology.com/",
    "category": "Dịch vụ sức khỏe tâm thần",
    "google_maps_url": null,
    "latitude": 10.7884157,
    "longitude": 106.7191893
  },
  {
    "name": "Trung tâm tham vấn - tư vấn tâm lý Thanh Bình PSY",
    "address": "5G7 Đường DCT9, Đông Hưng Thuận, Quận 12, Thành phố Hồ Chí Minh 700000, Việt Nam",
    "rating": 4.9,
    "reviews": 66,
    "phone": "+84 372 951 520",
    "website": "https://thanhbinhpsy.com/",
    "category": "Nhà tâm lý học",
    "google_maps_url": null,
    "latitude": 10.840499399999999,
    "longitude": 106.62150849999999
  },
  {
    "name": "Frances Moxon Counselling I Therapy Vietnam",
    "address": "18 Hẻm 85 Phạm Viết Chánh, Phường 19, Bình Thạnh, Thành phố Hồ Chí Minh, Việt Nam",
    "rating": 5,
    "reviews": 1,
    "phone": null,
    "website": "http://therapyvietnam.com/",
    "category": "Người chữa bệnh bằng liệu pháp tâm lý",
    "google_maps_url": null,
    "latitude": 10.7908241,
    "longitude": 106.71290549999999
  },
  {
    "name": "Tư vấn tâm lý Better Living",
    "address": "340C/21 Đ. Hoàng Văn Thụ, Phường 4, Tân Bình, Thành phố Hồ Chí Minh 700000, Việt Nam",
    "rating": 4.6,
    "reviews": 5,
    "phone": "+84 913 575 302",
    "website": "http://betterliving.edu.vn/",
    "category": "Nhà tâm lý học",
    "google_maps_url": null,
    "latitude": 10.797568,
    "longitude": 106.65704199999999
  },
  {
    "name": "Trung tâm Tâm lý và Phát triển con người NHC Việt Nam - Cơ sở Phan Chu Trinh",
    "address": "18 Phan Chu Trinh, Phường 13, Bình Thạnh, Thành phố Hồ Chí Minh, Việt Nam",
    "rating": 4.6,
    "reviews": 43,
    "phone": "+84 962 998 008",
    "website": "https://tamlynhc.vn/",
    "category": "Nhà tâm lý học",
    "google_maps_url": null,
    "latitude": 10.8186985,
    "longitude": 106.7008384
  },
  {
    "name": "Centre Médical International (CMI)",
    "address": "30 Phạm Ngọc Thạch, Ward, Quận 3, Thành phố Hồ Chí Minh, Việt Nam",
    "rating": 4.2,
    "reviews": 106,
    "phone": "+84 28 3827 2366",
    "website": "http://www.cmi-vietnam.com/",
    "category": "Nhà tâm lý học",
    "google_maps_url": null,
    "latitude": 10.784846,
    "longitude": 106.69422
  },
  {
    "name": "Holistic Intergrative Therapy",
    "address": "1/14 Nguyễn Cảnh Dị, Phường 4, Tân Bình, Thành phố Hồ Chí Minh 72100, Việt Nam",
    "rating": 5,
    "reviews": 10,
    "phone": "+84 968 499 608",
    "website": "https://www.facebook.com/profile.php?id=61561044594620&mibextid=LQQJ4d",
    "category": "Dịch vụ sức khỏe tâm thần",
    "google_maps_url": null,
    "latitude": 10.8056894,
    "longitude": 106.66198709999999
  },
  {
    "name": "Trung Tâm Ứng Dụng Tâm Lý Happy Mind",
    "address": "Trần Thị Bảy, Hiệp Thành, Quận 12, Thành phố Hồ Chí Minh, Việt Nam",
    "rating": 5,
    "reviews": 7,
    "phone": "+84 775 557 940",
    "website": null,
    "category": "Nhà tâm lý học",
    "google_maps_url": null,
    "latitude": 10.873045999999999,
    "longitude": 106.63465629999999
  },
  {
    "name": "Viện Tâm Lý Việt - Pháp - Hồ Chí Minh",
    "address": "Landmark Plus & Landmark 81, 720A Điện Biên Phủ, Vinhomes Tân Cảng, Bình Thạnh, Thành phố Hồ Chí Minh 724000, Việt Nam",
    "rating": 3,
    "reviews": 4,
    "phone": "+84 977 729 396",
    "website": "https://tamlyvietphap.vn/",
    "category": "Nhà tâm lý học",
    "google_maps_url": null,
    "latitude": 10.7948031,
    "longitude": 106.719949
  },
  {
    "name": "Smazon Company - Công ty Tư vấn & Đào tạo",
    "address": "356/9 Bạch Đằng, Phường 14, Bình Thạnh, Thành phố Hồ Chí Minh 70000, Việt Nam",
    "rating": 5,
    "reviews": 1,
    "phone": "+84 838 992 599",
    "website": "https://smazon.vn/",
    "category": "Nhà tâm lý học",
    "google_maps_url": null,
    "latitude": 10.803459,
    "longitude": 106.6993354
  },
  {
    "name": "Tham vấn trị liệu tâm lý HILA PSY",
    "address": "257/78 Bình Thành, Bình Hưng Hoà B, Bình Tân, Thành phố Hồ Chí Minh, Việt Nam",
    "rating": 5,
    "reviews": 2,
    "phone": "+84 774 402 005",
    "website": "https://hila.asia/",
    "category": "Nhà tâm lý học",
    "google_maps_url": null,
    "latitude": 10.8093566,
    "longitude": 106.5863729
  },
  {
    "name": "Trung tâm Tư vấn Trị liệu Tâm lý Trẻ em AVS",
    "address": "Lầu 3, Trường mầm non dân lập quốc tế Mỹ Úc Số 25-27, 29 Đường Số 5 - Cư xá Bình Thới, Phường 8, Quận 11, Thành phố Hồ Chí Minh, Việt Nam",
    "rating": 4.5,
    "reviews": 2,
    "phone": "+84 708 316 378",
    "website": "http://trilieutamly.edu.vn/",
    "category": "Nhà tâm thần học trẻ em",
    "google_maps_url": null,
    "latitude": 10.762342199999999,
    "longitude": 106.6487143
  },
  {
    "name": "DR. PEPPER - Vương Quốc Hạnh Phúc",
    "address": "37 Lê Văn Miến, Thảo Điền, Quận 2, Thành phố Hồ Chí Minh, Việt Nam",
    "rating": 4.2,
    "reviews": 16,
    "phone": "+84 866 204 337",
    "website": "http://vuongquochanhphuc.vn/",
    "category": "Bác sĩ tâm thần học",
    "google_maps_url": null,
    "latitude": 10.8055354,
    "longitude": 106.7339798
  },
  {
    "name": "Trung tâm Pháp y Tâm thần Khu vực TP. Hồ Chí Minh",
    "address": "154 Đ. Hồng Bàng, Phường 12, Quận 5, Thành phố Hồ Chí Minh, Việt Nam",
    "rating": 4.4,
    "reviews": 27,
    "phone": null,
    "website": "https://ttphapy.medinet.gov.vn/Default.aspx",
    "category": "Bệnh viện chuyên khoa",
    "google_maps_url": null,
    "latitude": 10.755039,
    "longitude": 106.6595478
  },
  {
    "name": "Nhà của Hieu Thuan Tran",
    "address": "126 đường Đ Hưng Thuận 42, Đông Hưng Thuận, Quận 12, Thành phố Hồ Chí Minh 700000, Việt Nam",
    "rating": 2.3,
    "reviews": 3,
    "phone": "+84 965 913 257",
    "website": "https://www.facebook.com/useeeih",
    "category": "Nhà tâm lý học",
    "google_maps_url": null,
    "latitude": 10.8375781,
    "longitude": 106.6226588
  },
  {
    "name": "Phòng Khám Tâm Thần Kinh - Bác Sĩ Đặng Thế Ân",
    "address": "91 Bình Lợi, Phường 13, Bình Thạnh, Thành phố Hồ Chí Minh, Việt Nam",
    "rating": 4.5,
    "reviews": 13,
    "phone": "+84 903 780 952",
    "website": "https://timbenhvien.vn/chi-tiet/phong-kham-tam-than-kinh---bs.-dang-the-an/2041",
    "category": "Bác sĩ tâm thần học",
    "google_maps_url": null,
    "latitude": 10.829678999999999,
    "longitude": 106.705612
  },
  {
    "name": "Vật lý trị liệu (Tân Phú Therapy Cơ Sở 3)",
    "address": "127A Đ. Trần Thái Tông, Phường 15, Tân Bình, Thành phố Hồ Chí Minh 700000, Việt Nam",
    "rating": 5,
    "reviews": 77,
    "phone": "+84 986 864 947",
    "website": "https://tanphutherapy.com/",
    "category": "Vật lý trị liệu",
    "google_maps_url": null,
    "latitude": 10.8168586,
    "longitude": 106.63608289999999
  },
  {
    "name": "Thần Kinh Tâm Lý - Bs Xuân Điền",
    "address": "333/6b Đ. Lê Văn Sỹ, Phường, Tân Bình, Thành phố Hồ Chí Minh, Việt Nam",
    "rating": 4.9,
    "reviews": 7,
    "phone": "+84 938 655 086",
    "website": null,
    "category": "Nhà tâm lý học",
    "google_maps_url": null,
    "latitude": 10.794881199999999,
    "longitude": 106.6661237
  },
  {
    "name": "Viện Y dược học dân tộc Thành phố Hồ Chí Minh",
    "address": "273 275, 273 Đ. Nguyễn Văn Trỗi, Phường 10, Phú Nhuận, Thành phố Hồ Chí Minh 70000, Việt Nam",
    "rating": 4,
    "reviews": 424,
    "phone": "+84 28 3844 3047",
    "website": "http://vienydhdt.gov.vn/",
    "category": "Bệnh viện",
    "google_maps_url": null,
    "latitude": 10.797711,
    "longitude": 106.67137679999999
  },
  {
    "name": "Saigon Holistic Clinic D2",
    "address": "12 Nguyễn Bá Lân, Thảo Điền, Thủ Đức, Thành phố Hồ Chí Minh, Việt Nam",
    "rating": 4.8,
    "reviews": 66,
    "phone": "+84 862 124 545",
    "website": "https://www.saigonholistic.com/",
    "category": "Người chữa bệnh bằng phương pháp nắn khớp xương",
    "google_maps_url": null,
    "latitude": 10.8037774,
    "longitude": 106.73621709999999
  },
  {
    "name": "Phòng Khám Đông Y Tâm An",
    "address": "96-98 Đ. Gò Dầu, Tân Quý, Tân Phú, Thành phố Hồ Chí Minh 700000, Việt Nam",
    "rating": 4.9,
    "reviews": 206,
    "phone": "+84 938 802 809",
    "website": "https://vatlytrilieutaman.com/",
    "category": "Phòng khám vật lý trị liệu",
    "google_maps_url": null,
    "latitude": 10.7960253,
    "longitude": 106.6256671
  },
  {
    "name": "Dr.PhamMinhTriet",
    "address": "123, Việt Nam",
    "rating": null,
    "reviews": null,
    "phone": null,
    "website": "https://drphamminhtriet.com/",
    "category": "Bác sĩ chuyên khoa tâm lý trẻ em",
    "google_maps_url": null,
    "latitude": 10.8230989,
    "longitude": 106.62966379999999
  },
  {
    "name": "Phòng Khám Thiên Thanh | Phòng Khám Trị Liệu Tân Bình | Vật Lý Trị Liệu Tân Bình",
    "address": "Phạm Văn Bạch, Phường 15, Tân Bình, Thành phố Hồ Chí Minh, Việt Nam",
    "rating": 4.9,
    "reviews": 27,
    "phone": "+84 979 856 254",
    "website": "http://phongkhamthienthanh.com/",
    "category": "Vật lý trị liệu",
    "google_maps_url": null,
    "latitude": 10.816585499999999,
    "longitude": 106.6346641
  },
  {
    "name": "Therapy Sport",
    "address": "31/32/1G Đ. Ung Văn Khiêm, Phường 25, Bình Thạnh, Thành phố Hồ Chí Minh 72300, Việt Nam",
    "rating": 5,
    "reviews": 75,
    "phone": "+84 924 099 997",
    "website": "http://therapysport.vn/",
    "category": "Vật lý trị liệu",
    "google_maps_url": null,
    "latitude": 10.8094152,
    "longitude": 106.71494299999999
  },
  {
    "name": "Tư vấn tâm lý Safe and Sound / Safe and Sound - Mental Health Care",
    "address": "Midtown - The Peak, M8 Đường số 16, Tân Phú, Quận 7, Thành phố Hồ Chí Minh 70000, Việt Nam",
    "rating": 5,
    "reviews": 39,
    "phone": "+84 964 778 911",
    "website": "https://sns.org.vn/",
    "category": "Dịch vụ sức khỏe tâm thần",
    "google_maps_url": null,
    "latitude": 10.7245207,
    "longitude": 106.72947309999999
  },
  {
    "name": "MHC+",
    "address": "Hai Bà Trưng, Phường Võ Thị Sáu, Quận 3, Thành phố Hồ Chí Minh 70000, Việt Nam",
    "rating": 5,
    "reviews": 10,
    "phone": "+84 916 474 885",
    "website": "http://linkedin.com/in/xuyenphanmhc",
    "category": "Dịch vụ sức khỏe tâm thần",
    "google_maps_url": null,
    "latitude": 10.7913639,
    "longitude": 106.68641
  },
  {
    "name": "Văn phòng Tâm lý và Đời Sống",
    "address": "4 Phan Chu Trinh, Phường 12, Bình Thạnh, Thành phố Hồ Chí Minh, Việt Nam",
    "rating": 5,
    "reviews": 1,
    "phone": "+84 979 721 331",
    "website": null,
    "category": "Dịch vụ sức khỏe tâm thần",
    "google_maps_url": null,
    "latitude": 10.816355999999999,
    "longitude": 106.701314
  },
  {
    "name": "Trị Liệu Tâm Lý Đại Quang Minh",
    "address": "575/62 Cách Mạng Tháng Tám, Phường 15, Quận 10, Thành phố Hồ Chí Minh, Việt Nam",
    "rating": 5,
    "reviews": 1,
    "phone": "+84 782 455 454",
    "website": null,
    "category": "Người chữa bệnh bằng liệu pháp tâm lý",
    "google_maps_url": null,
    "latitude": 10.782340099999999,
    "longitude": 106.6689497
  },
  {
    "name": "Bệnh viện Tâm Thần Thành phố Hồ Chí Minh",
    "address": "766 Võ Văn Kiệt, Phường 1, Quận 5, Thành phố Hồ Chí Minh, Việt Nam",
    "rating": 2.5,
    "reviews": 206,
    "phone": "+84 28 3923 4675",
    "website": "https://bvtt-tphcm.org.vn/",
    "category": "Bệnh viện tâm thần",
    "google_maps_url": null,
    "latitude": 10.752481699999999,
    "longitude": 106.6783073
  },
  {
    "name": "Tâm Lý Phúc Thông",
    "address": "204/12 Đ. Cao Đạt, Phường 1, Quận 5, Thành phố Hồ Chí Minh 70000, Việt Nam",
    "rating": 5,
    "reviews": 1,
    "phone": "+84 938 126 438",
    "website": "https://tamlyphucthong.vn/",
    "category": "Dịch vụ sức khỏe tâm thần",
    "google_maps_url": null,
    "latitude": 10.7547675,
    "longitude": 106.6826366
  },
  {
    "name": "Viện Tâm Lý Xã Hội Quốc Tế Mỹ",
    "address": "Công Hữu, 209/21b Tôn Thất Thuyết, Phường 3, Quận 4, Thành phố Hồ Chí Minh 700000, Việt Nam",
    "rating": 5,
    "reviews": 4,
    "phone": "+84 932 701 919",
    "website": "http://aipi.edu.vn/",
    "category": "Người chữa bệnh bằng liệu pháp tâm lý",
    "google_maps_url": null,
    "latitude": 10.7545182,
    "longitude": 106.69894869999999
  },
  {
    "name": "Trung Tâm Tham Vấn Trị Liệu HAPPY Life",
    "address": "59/13 Đ. TL 37, Thạnh Lộc, Quận 12, Thành phố Hồ Chí Minh 70000, Việt Nam",
    "rating": 4.8,
    "reviews": 5,
    "phone": "+84 928 828 399",
    "website": null,
    "category": "Trung tâm chăm sóc trẻ em",
    "google_maps_url": null,
    "latitude": 10.8792644,
    "longitude": 106.6883469
  },
  {
    "name": "Psychotherapy in Saigon - Oded Reitten MA, Adep, UKCP reg. Existential Psychotherapist",
    "address": "45 Đường Đỗ Quang Thảo Điền Quận 2, Thành phố, Thành phố Hồ Chí Minh, Việt Nam",
    "rating": 5,
    "reviews": 1,
    "phone": "+44 7763 785840",
    "website": "http://psycho-therapeia.com/",
    "category": "Người chữa bệnh bằng liệu pháp tâm lý",
    "google_maps_url": null,
    "latitude": 10.8042508,
    "longitude": 106.72849719999999
  },
  {
    "name": "TAM AN Psychotherapy and Counseling Center",
    "address": "4 Lý Văn Phức, Phường Tân Định, Dist.1, Thành phố Hồ Chí Minh 700000, Việt Nam",
    "rating": null,
    "reviews": null,
    "phone": null,
    "website": "http://fb.me/taman.official",
    "category": "Dịch vụ sức khỏe tâm thần",
    "google_maps_url": null,
    "latitude": 10.7907966,
    "longitude": 106.6944221
  },
  {
    "name": "Magic Mandala Healing",
    "address": "49 Đường số 4, Phường 11, Gò Vấp, Thành phố Hồ Chí Minh 700000, Việt Nam",
    "rating": 4.5,
    "reviews": 2,
    "phone": "+84 858 210 444",
    "website": null,
    "category": "Người chữa bệnh bằng liệu pháp tâm lý",
    "google_maps_url": null,
    "latitude": 10.847963799999999,
    "longitude": 106.6585016
  }
]
