[
  {
    "name": "Psychologist Vietnam",
    "address": "162 Nguyễn Duy Trinh, Hoà Hải, Ngũ Hành Sơn, Đà Nẵng 550000, Việt Nam",
    "rating": 5,
    "reviews": 23,
    "phone": "+84 812 151 220",
    "website": "http://www.psychologistvietnam.com/",
    "category": "Nhà tâm lý học",
    "google_maps_url": null,
    "latitude": 15.9952657,
    "longitude": 108.26395679999999
  },
  {
    "name": "Nghiên cứu và Tham vấn Tâm lý Family",
    "address": "150 Trần Thủ Độ, Khuê Trung, Cẩm Lệ, Đà Nẵng 550000, Việt Nam",
    "rating": 4.7,
    "reviews": 39,
    "phone": "+84 905 619 097",
    "website": "http://tamlyfamily.com/",
    "category": "Nhà tâm lý học",
    "google_maps_url": null,
    "latitude": 16.0230014,
    "longitude": 108.2112537
  },
  {
    "name": "Trung Tâm Tham Vấn Tâm Lý & Phát Triển Kĩ Năng New Life",
    "address": "150 Tống Duy Tân, Hoà Minh, Liên Chiểu, Đà Nẵng 550000, Việt Nam",
    "rating": 5,
    "reviews": 3,
    "phone": null,
    "website": "http://www.thamvannewlife.com/",
    "category": "Nhà tâm lý học",
    "google_maps_url": null,
    "latitude": 16.0580154,
    "longitude": 108.169562
  },
  {
    "name": "HAN - Tâm Lý Học Hạnh Phúc",
    "address": "54 Hà Văn Tính, Hoà Khánh Nam, Liên Chiểu, Đà Nẵng 550000, Việt Nam",
    "rating": 5,
    "reviews": 12,
    "phone": "+84 918 870 969",
    "website": "https://www.tamlyhochanhphuc.com/",
    "category": "Nhà tâm lý học",
    "google_maps_url": null,
    "latitude": 16.0688793,
    "longitude": 108.1548991
  },
  {
    "name": "Trung Tâm Can Thiệp Sớm Happy Life - Ngũ Hành Sơn - Đà Nẵng",
    "address": "296 Huỳnh Văn Nghệ, Hoà Hải, Ngũ Hành Sơn, Đà Nẵng 550000, Việt Nam",
    "rating": 5,
    "reviews": 6,
    "phone": "+84 348 355 492",
    "website": "https://www.facebook.com/giasutukytainhadannag/",
    "category": "Nhà tâm lý học",
    "google_maps_url": null,
    "latitude": 15.981470499999999,
    "longitude": 108.24996
  },
  {
    "name": "Nhân Hà",
    "address": "tổ 8 thôn Trảng Suối, Hòa Thuận Tây, Hải Châu, Đà Nẵng 550000, Việt Nam",
    "rating": null,
    "reviews": null,
    "phone": "+84 899 244 028",
    "website": null,
    "category": "Nhà tâm lý học",
    "google_maps_url": null,
    "latitude": 16.0544118,
    "longitude": 108.2022078
  },
  {
    "name": "Phòng Khám Vật Lý Trị Liệu - Phục Hồi Chức Năng Đà nẵng M&M - Clinic Physiotherapy treatment and Rehabilitation",
    "address": "28 Hoài Thanh, Bắc Mỹ Phú, Ngũ Hành Sơn, Đà Nẵng 550000, Việt Nam",
    "rating": 4.8,
    "reviews": 25,
    "phone": "+84 905 328 929",
    "website": "https://www.facebook.com/profile.php?id=100045936167836",
    "category": "Vật lý trị liệu",
    "google_maps_url": null,
    "latitude": 16.049972699999998,
    "longitude": 108.2364506
  },
  {
    "name": "Minh Tâm Khai Sáng - Chuyên Gia Tâm Lý",
    "address": "194 Thăng Long, Hoà Cường Nam, Hải Châu, Đà Nẵng 550000, Việt Nam",
    "rating": 3.7,
    "reviews": 3,
    "phone": "+84 976 882 921",
    "website": "https://minhtamkhaisang.com/",
    "category": "Trung tâm giáo dục",
    "google_maps_url": null,
    "latitude": 16.0285589,
    "longitude": 108.2248935
  },
  {
    "name": "Trung Tâm Vật Lý Trị Liệu - Phục Hồi Chức Năng DR. THE KAN",
    "address": "40/20 Nguyễn Huy Tưởng, Hoà Minh, Liên Chiểu, Đà Nẵng 550000, Việt Nam",
    "rating": 4.9,
    "reviews": 62,
    "phone": "+84 901 928 880",
    "website": "https://www.facebook.com/profile.php?id=100066954395362",
    "category": "Phòng khám vật lý trị liệu",
    "google_maps_url": null,
    "latitude": 16.0548352,
    "longitude": 108.1686817
  },
  {
    "name": "P.SYE - Trung tâm Tham vấn tâm lý, can thiệp sớm và Phát triển kỹ năng",
    "address": "116 Đinh Đức Thiện, Hoà Minh, Liên Chiểu, Đà Nẵng 550000, Việt Nam",
    "rating": 5,
    "reviews": 7,
    "phone": "+84 372 174 343",
    "website": "https://www.facebook.com/p.syethamvancanthiepkynang",
    "category": "Trung tâm giáo dục",
    "google_maps_url": null,
    "latitude": 16.077289,
    "longitude": 108.15906059999999
  },
  {
    "name": "Phòng Khám Vật Lý Trị Liệu - Phục Hồi Chức Năng Đà Nẵng - Bs. Huỳnh Tấn Tuệ",
    "address": "212a Trần Cao Vân, Xuân Hà, Thanh Khê, Đà Nẵng 550000, Việt Nam",
    "rating": 5,
    "reviews": 12,
    "phone": "+84 914 236 293",
    "website": "https://www.facebook.com/phongkhambacsitue",
    "category": "Vật lý trị liệu",
    "google_maps_url": null,
    "latitude": 16.0721621,
    "longitude": 108.20647849999999
  },
  {
    "name": "Tâm An Healing",
    "address": "06 Trung Lập 3, Quan Nam, Liên Chiểu, Đà Nẵng, Việt Nam",
    "rating": 5,
    "reviews": 3,
    "phone": null,
    "website": null,
    "category": "Vật lý trị liệu",
    "google_maps_url": null,
    "latitude": 16.100396099999998,
    "longitude": 108.1307891
  },
  {
    "name": "Phòng khám Y học cổ truyền châm cứu phục hồi chức năng BS Phương - BS Dũng",
    "address": "136 Võ Văn Ngân, Hoà Xuân, Cẩm Lệ, Đà Nẵng 557400, Việt Nam",
    "rating": 5,
    "reviews": 78,
    "phone": "+84 905 188 105",
    "website": null,
    "category": "Phòng khám",
    "google_maps_url": null,
    "latitude": 16.000469,
    "longitude": 108.21754229999999
  },
  {
    "name": "Lee’s Advanced Muscle Rehab & Trigger Point Therapy /Appointment Only",
    "address": "59 Chương D., Bắc Mỹ Phú, Ngũ Hành Sơn, Đà Nẵng 550000, Việt Nam",
    "rating": 5,
    "reviews": 110,
    "phone": "+84 399 527 083",
    "website": "https://www.facebook.com/caro.manh.96",
    "category": "Bác sĩ điều trị đau",
    "google_maps_url": null,
    "latitude": 16.0475487,
    "longitude": 108.23472989999999
  },
  {
    "name": "Yến Sào Thanh Thêu",
    "address": "Toà E3, Số 4, Hoà Khánh Bắc, Liên Chiểu, Đà Nẵng, Việt Nam",
    "rating": 5,
    "reviews": 1,
    "phone": "+84 382 094 261",
    "website": null,
    "category": "Cố vấn sức khỏe",
    "google_maps_url": null,
    "latitude": 16.0737906,
    "longitude": 108.13678929999999
  },
  {
    "name": "Padma Spa & Therapy - Spa Danang - Massage Danang -다낭 스파 - 峴港水療中心 - 다낭 마사지 - ダナンのマッサージ",
    "address": "97 Lê Quang Hòa, Hoà Xuân, Cẩm Lệ, Đà Nẵng 55555, Việt Nam",
    "rating": 4.6,
    "reviews": 48,
    "phone": "+84 901 157 111",
    "website": "http://www.padma.vn/",
    "category": "Spa sức khỏe",
    "google_maps_url": null,
    "latitude": 16.0200766,
    "longitude": 108.23047559999999
  },
  {
    "name": "HƯƠNG ARM SPA & THERAPY",
    "address": "07 Đặng Huy Trứ, Hoà Minh, Liên Chiểu, Đà Nẵng 550000, Việt Nam",
    "rating": 5,
    "reviews": 3,
    "phone": "+84 964 604 199",
    "website": null,
    "category": "Spa",
    "google_maps_url": null,
    "latitude": 16.0833948,
    "longitude": 108.16109039999999
  },
  {
    "name": "Harbour Consultants - Craniosacral Therapy (CST) by Appointment only",
    "address": "98 Phạm Tu, Phước Mỹ, Sơn Trà, Đà Nẵng 50408, Việt Nam",
    "rating": 5,
    "reviews": 17,
    "phone": null,
    "website": "https://www.therapybysharon.com/",
    "category": "Trung tâm chăm sóc sức khỏe",
    "google_maps_url": null,
    "latitude": 16.066333699999998,
    "longitude": 108.2403121
  },
  {
    "name": "Medical Massage",
    "address": "43 Đa Phước 1, Khuê Mỹ, Ngũ Hành Sơn, Đà Nẵng 50000, Việt Nam",
    "rating": 4.9,
    "reviews": 84,
    "phone": "+84 908 034 578",
    "website": null,
    "category": "Vật lý trị liệu",
    "google_maps_url": null,
    "latitude": 16.0276304,
    "longitude": 108.24144729999999
  },
  {
    "name": "Phúc An Therapy",
    "address": "94 Huỳnh Tấn Phát, Hoà Cường Bắc, Hải Châu, Đà Nẵng, Việt Nam",
    "rating": 5,
    "reviews": 1,
    "phone": "+84 905 262 228",
    "website": null,
    "category": "Vật lý trị liệu",
    "google_maps_url": null,
    "latitude": 16.0364629,
    "longitude": 108.2143004
  },
  {
    "name": "Bệnh viện Tâm thần Thành phố Đà Nẵng",
    "address": "193 Nguyễn Lương Bằng, Hoà Khánh Bắc, Liên Chiểu, Đà Nẵng 550000, Việt Nam",
    "rating": 3.3,
    "reviews": 104,
    "phone": "+84 236 3842 326",
    "website": "https://bvtamthandanang.com/",
    "category": "Bệnh viện tâm thần",
    "google_maps_url": null,
    "latitude": 16.0797175,
    "longitude": 108.1469532
  },
  {
    "name": "Healing Hands Spa - Da Nang",
    "address": "102 D. Đình Nghệ, An Hải, Sơn Trà, Đà Nẵng 550000, Việt Nam",
    "rating": 4.9,
    "reviews": 6921,
    "phone": "+84 799 019 899",
    "website": "http://healinghandsspadn.com/",
    "category": "Bác sĩ trị liệu xoa bóp",
    "google_maps_url": null,
    "latitude": 16.0694197,
    "longitude": 108.2368367
  },
  {
    "name": "Trung Tâm Ca Đô",
    "address": "131/11 Lý Thái Tổ, Thạc Gián, Thanh Khê, Đà Nẵng 000074, Việt Nam",
    "rating": null,
    "reviews": null,
    "phone": "+84 966 801 605",
    "website": null,
    "category": "Nhà tâm lý học",
    "google_maps_url": null,
    "latitude": 16.0660262,
    "longitude": 108.2067127
  },
  {
    "name": "Phòng Chẩn Trị YHCT Phùng Nồng",
    "address": "356 Hùng Vương, Thạc Gián, Thanh Khê, Đà Nẵng 550000, Việt Nam",
    "rating": 5,
    "reviews": 5,
    "phone": "+84 901 944 928",
    "website": null,
    "category": "Bác sĩ chữa bệnh nghề nghiệp",
    "google_maps_url": null,
    "latitude": 16.0670254,
    "longitude": 108.2124214
  },
  {
    "name": "Massage Yoni & Lingam tại nhà Đà Nẵng - Male/Female Therapist",
    "address": "150 Phạm Văn Đồng, An Hải Bắc, Sơn Trà, Đà Nẵng 550000, Việt Nam",
    "rating": 5,
    "reviews": 20,
    "phone": "+84 979 937 811",
    "website": "https://massageformen.vn/",
    "category": "Spa sức khỏe",
    "google_maps_url": null,
    "latitude": 16.0705653,
    "longitude": 108.2359051
  },
  {
    "name": "Luxury Healthy Spa & Massage",
    "address": "224 Trần Bạch Đằng, Bắc Mỹ Phú, Ngũ Hành Sơn, Đà Nẵng 55000, Việt Nam",
    "rating": 4.9,
    "reviews": 4218,
    "phone": "+84 896 907 799",
    "website": "https://healthyspadanang.com/",
    "category": "Bác sĩ trị liệu xoa bóp",
    "google_maps_url": null,
    "latitude": 16.0496665,
    "longitude": 108.24762249999999
  },
  {
    "name": "Cơ Sở Khám Và Điều Trị Ban Ngày",
    "address": "89 Ng. Gia Tự, Hải Châu, Đà Nẵng 550000, Việt Nam",
    "rating": null,
    "reviews": null,
    "phone": null,
    "website": null,
    "category": "Bệnh viện tâm thần",
    "google_maps_url": null,
    "latitude": 16.0677576,
    "longitude": 108.21773809999999
  },
  {
    "name": "HandsViet - Phòng khám Cơ xương khớp và Y học thể thao",
    "address": "227b Nguyễn Công Trứ, Phước Mỹ, Sơn Trà, Đà Nẵng 550000, Việt Nam",
    "rating": 5,
    "reviews": 173,
    "phone": "+84 789 456 818",
    "website": "http://handsviet.com/",
    "category": "Bác sĩ",
    "google_maps_url": null,
    "latitude": 16.0658198,
    "longitude": 108.2393068
  },
  {
    "name": "Jang Mi Spa & Massage",
    "address": "77 D. Đình Nghệ, An Hải Bắc, Sơn Trà, Đà Nẵng 550000, Việt Nam",
    "rating": 4.9,
    "reviews": 6944,
    "phone": "+84 363 457 969",
    "website": "http://www.jangmispa.vn/",
    "category": "Spa ban ngày",
    "google_maps_url": null,
    "latitude": 16.068642099999998,
    "longitude": 108.24167899999999
  },
  {
    "name": "Phòng Khám Gia Đình Đà Nẵng",
    "address": "96-98 Nguyễn Văn Linh, Street, Hải Châu, Đà Nẵng 550000, Việt Nam",
    "rating": 4.9,
    "reviews": 1152,
    "phone": "+84 913 917 303",
    "website": "https://www.vietnammedicalpractice.com/",
    "category": "Phòng khám",
    "google_maps_url": null,
    "latitude": 16.060628299999998,
    "longitude": 108.2149807
  },
  {
    "name": "Massage Samdi VIP Đà Nẵng",
    "address": "331A Nguyễn Văn Linh, Thạc Gián, Thanh Khê, Đà Nẵng 550000, Việt Nam",
    "rating": 4.5,
    "reviews": 26,
    "phone": "+84 706 333 444",
    "website": "https://www.facebook.com/profile.php?id=61569018262755",
    "category": "Bác sĩ trị liệu xoa bóp",
    "google_maps_url": null,
    "latitude": 16.0592954,
    "longitude": 108.2084661
  },
  {
    "name": "Hội Quán Diện Chẩn Bùi Quốc Châu - Đà Nẵng",
    "address": "34/3 Nguyễn Công Trứ, An Hải Bắc, Sơn Trà, Đà Nẵng 550000, Việt Nam",
    "rating": 5,
    "reviews": 2,
    "phone": "+84 905 225 811",
    "website": null,
    "category": "Vật lý trị liệu",
    "google_maps_url": null,
    "latitude": 16.0685106,
    "longitude": 108.2300722
  },
  {
    "name": "Yoni(Lingam) Massage Tp.Da Nang - Male/Female Therapists",
    "address": "02 Như Nguyệt, Thuận Phước, Hải Châu, Đà Nẵng 550000, Việt Nam",
    "rating": null,
    "reviews": null,
    "phone": "+84 918 247 811",
    "website": "http://yonispa.vn/",
    "category": null,
    "google_maps_url": null,
    "latitude": 16.0869174,
    "longitude": 108.2209857
  },
  {
    "name": "OANI SPA",
    "address": "46 Phan Liêm, Bắc Mỹ Phú, Ngũ Hành Sơn, Đà Nẵng 550000, Việt Nam",
    "rating": 4.8,
    "reviews": 909,
    "phone": "+84 917 020 468",
    "website": "https://oanispa.com/?utm_source=maps",
    "category": "Spa",
    "google_maps_url": null,
    "latitude": 16.0548417,
    "longitude": 108.24545069999999
  },
  {
    "name": "MentalCare",
    "address": "129 Phùng Hưng, Thanh Khê Tây, Liên Chiểu, Đà Nẵng 550000, Việt Nam",
    "rating": 4.7,
    "reviews": 11,
    "phone": "+84 886 510 790",
    "website": "http://mentalcare.vn/",
    "category": "Phòng khám",
    "google_maps_url": null,
    "latitude": 16.0739336,
    "longitude": 108.1672423
  },
  {
    "name": "Phòng Khám Tâm Thần Kinh Mental Clinic",
    "address": "63 Phan Thanh, Thạc Gián, Thanh Khê, Đà Nẵng 550000, Việt Nam",
    "rating": 5,
    "reviews": 1,
    "phone": "+84 868 591 445",
    "website": "https://www.facebook.com/Mentalclinic2023?mibextid=JRoKGi",
    "category": "Phòng khám",
    "google_maps_url": null,
    "latitude": 16.062617,
    "longitude": 108.208733
  },
  {
    "name": "Phục hồi chức năng Việt Pháp Đà Nẵng - Viet Phap Rehabilitation Clinic",
    "address": "124/3 Quang Trung, Thạch Thang, Hải Châu, Đà Nẵng 55000, Việt Nam",
    "rating": 5,
    "reviews": 116,
    "phone": "+84 906 512 662",
    "website": "https://phuchoichucnangvietphap.vn/",
    "category": "Phòng khám vật lý trị liệu",
    "google_maps_url": null,
    "latitude": 16.0744728,
    "longitude": 108.2168126
  },
  {
    "name": "Sunrise Dork Dancing",
    "address": "202 Đường võ nguyên giáp, Phước Mỹ, Sơn Trà, Đà Nẵng 550000, Việt Nam",
    "rating": 5,
    "reviews": 1,
    "phone": null,
    "website": "http://dorkdancing.com/",
    "category": "Dịch vụ sức khỏe tâm thần",
    "google_maps_url": null,
    "latitude": 16.0685271,
    "longitude": 108.2449805
  },
  {
    "name": "Trung tâm Điều dưỡng Người Tâm thần Thành phố Đà Nẵng",
    "address": "Khu Phố Đà Sơn, Hoà Khánh Nam, Liên Chiểu, Đà Nẵng 550000, Việt Nam",
    "rating": 4.8,
    "reviews": 6,
    "phone": "+84 236 3737 304",
    "website": null,
    "category": "Bệnh viện tâm thần",
    "google_maps_url": null,
    "latitude": 16.0476668,
    "longitude": 108.1545817
  },
  {
    "name": "Phòng Khám Tâm Thần Kinh BS Hảo",
    "address": "Kiệt 158/19/16 Ông Ích Đ., Hoà Thọ Đông, Cẩm Lệ, Đà Nẵng 50000, Việt Nam",
    "rating": 4.9,
    "reviews": 9,
    "phone": "+84 978 688 670",
    "website": null,
    "category": "Phòng khám",
    "google_maps_url": null,
    "latitude": 16.012424799999998,
    "longitude": 108.20465659999999
  },
  {
    "name": "Trạm Nhặt",
    "address": "15 Tôn Thất Thiệp, Bắc Mỹ Phú, Ngũ Hành Sơn, Đà Nẵng 550000, Việt Nam",
    "rating": null,
    "reviews": null,
    "phone": "+84 857 737 115",
    "website": null,
    "category": "Người chữa bệnh bằng liệu pháp tâm lý",
    "google_maps_url": null,
    "latitude": 16.0492551,
    "longitude": 108.24041989999999
  },
  {
    "name": "Thanh_k2",
    "address": "205 Thế Lữ, An Hải Bắc, Sơn Trà, Đà Nẵng 550000, Việt Nam",
    "rating": null,
    "reviews": null,
    "phone": "+84 905 546 925",
    "website": null,
    "category": "Nhà tâm lý học",
    "google_maps_url": null,
    "latitude": 16.0820087,
    "longitude": 108.23526129999999
  },
  {
    "name": "PHÒNG KHÁM CHUYÊN KHOA TÂM THẦN KINH - BÁC SĨ PHAN THỊ PHƯƠNG QUỲNH",
    "address": "298 Hoàng Diệu, Phước Ninh, Hải Châu, Đà Nẵng 550000, Việt Nam",
    "rating": 5,
    "reviews": 1,
    "phone": "+84 983 010 134",
    "website": "https://bacsidanang.com/bac-si-phan-thi-phuong-quynh/",
    "category": "Phòng khám tâm thần",
    "google_maps_url": null,
    "latitude": 16.0599424,
    "longitude": 108.2169042
  },
  {
    "name": "Thầy Quang PT",
    "address": "260/61 Điện Biên Phủ, Chính Gián, Thanh Khê, Đà Nẵng 550000, Việt Nam",
    "rating": null,
    "reviews": null,
    "phone": "+84 985 316 619",
    "website": null,
    "category": "Người chữa bệnh bằng liệu pháp tâm lý",
    "google_maps_url": null,
    "latitude": 16.066847799999998,
    "longitude": 108.1950602
  }
]
