[
  {
    "name": "Phòng Khám Phục Hồi Chức Năng Khánh An (Khanh An Physical Rehabilitation Clinic)",
    "address": "16 P. Châu Long, Trúc Bạch, Ba Đình, Hà Nội Hà Nội, Hanoi City, 100000, Việt Nam",
    "rating": 5.0,
    "reviews": 97,
    "phone": "+84 852 879 679",
    "website": "https://khanhanclinic.com/",
    "category": "Phòng khám vật lý trị liệu",
    "city": "Hanoi",
    "lat": 21.046045799999998,
    "lng": 105.84257269999999,
    "source": "serpapi:counseling center"
  },
  {
    "name": "Văn phòng tâm lý Miền Hải Đăng",
    "address": "36 Ng. 15 P. Vĩnh Hồ, Thịnh Quang, Đống Đa, Hà Nội, Việt Nam",
    "rating": 5.0,
    "reviews": 58,
    "phone": "+84 353 144 822",
    "website": "/url?q=https://tamlymienhaidang.com/&opi=79508299&sa=U&ved=0ahUKEwiDgvDJ2tqQAxUtO0QIHW5SHIgQ61gIHigR&usg=AOvVaw3AWIWOaeSFaKfNmJlJcc1x",
    "category": "Nhà tâm lý học",
    "city": "Hanoi",
    "lat": 21.0046563,
    "lng": 105.8211944,
    "source": "serpapi:tâm lý gia"
  },
  {
    "name": "Châm cứu bấm huyệt - Trị liệu chuyên sâu Dr.Tien | Acupuncture & Acupressure - Advanced Therapy",
    "address": "222 P. Khương Thượng, Khương Thượng, Đống Đa, Hà Nội 115000, Việt Nam",
    "rating": 5.0,
    "reviews": 48,
    "phone": "+84 886 844 222",
    "website": "https://www.facebook.com/share/17FfFGA8Th/?mibextid=wwXIfr",
    "category": "Phòng châm cứu",
    "city": "Hanoi",
    "lat": 21.0029388,
    "lng": 105.8242796,
    "source": "serpapi:counseling center"
  },
  {
    "name": "Phòng khám Chuyên khoa Tâm thần Hoàng Yến",
    "address": "12 Ngõ 44 P. Đỗ Quang, Trung Hoà, Cầu Giấy, Hà Nội 100000, Việt Nam",
    "rating": 5.0,
    "reviews": 47,
    "phone": "+84 974 509 322",
    "website": "https://phongkhamtamthanhoangyen.com/",
    "category": "Phòng khám tâm thần",
    "city": "Hanoi",
    "lat": 21.0107099,
    "lng": 105.8022336,
    "source": "serpapi:phòng khám tâm lý"
  },
  {
    "name": "Trung tâm Tham vấn và Trị liệu Tâm lý Tâm An",
    "address": "79 Ng. 619 Vũ Tông Phan, Khương Đình, Thanh Xuân, Hà Nội 100000, Việt Nam",
    "rating": 5.0,
    "reviews": 23,
    "phone": "+84 886 332 683",
    "website": "/url?q=https://trilieutaman.vn/&opi=79508299&sa=U&ved=0ahUKEwiDgvDJ2tqQAxUtO0QIHW5SHIgQ61gIxgEoEQ&usg=AOvVaw3nd9MSdeaG0PcG57Bv3MAR",
    "category": "Nhà tâm lý học",
    "city": "Hanoi",
    "lat": 20.9835271,
    "lng": 105.8168941,
    "source": "serpapi:tâm lý gia"
  },
  {
    "name": "Hoàng Hải Vân",
    "address": "21 P. Trúc Bạch, Trúc Bạch, Ba Đình, Hà Nội, Việt Nam",
    "rating": 5.0,
    "reviews": 19,
    "phone": "+84 936 170 809",
    "website": "http://www.hoanghaivan.org/",
    "category": "Nhà tư vấn gia đình",
    "city": "Hanoi",
    "lat": 21.0487565,
    "lng": 105.8400484,
    "source": "serpapi:psychiatrist"
  },
  {
    "name": "INITY",
    "address": "14 P. Võ Văn Dũng, Chợ Dừa, Đống Đa, Hà Nội 100000, Việt Nam",
    "rating": 5.0,
    "reviews": 17,
    "phone": "+84 919 390 055",
    "website": null,
    "category": "Dịch vụ sức khỏe tâm thần",
    "city": "Hanoi",
    "lat": 21.0159725,
    "lng": 105.82355989999999,
    "source": "serpapi:mental health clinic"
  },
  {
    "name": "Viện Tâm Lý Đời Sống - LPI",
    "address": "17 Ng. 23 P. Đỗ Quang, Trung Hoà, Cầu Giấy, Hà Nội 100000, Việt Nam",
    "rating": 5.0,
    "reviews": 16,
    "phone": "+84 869 627 699",
    "website": "/url?q=https://tamlydoisong.com/&opi=79508299&sa=U&ved=0ahUKEwiDgvDJ2tqQAxUtO0QIHW5SHIgQ61gIhgIoEQ&usg=AOvVaw1mUQ0lWZU_Zx0ALpCov1fm",
    "category": "Dịch vụ sức khỏe tâm thần",
    "city": "Hanoi",
    "lat": 21.0116038,
    "lng": 105.8031518,
    "source": "serpapi:tâm lý gia"
  },
  {
    "name": "Trung tâm tâm lý Anh Việt Mỹ",
    "address": "15 ngõ 26 P. Hoàng Cầu, Chợ Dừa, Đống Đa, Hà Nội 100000, Việt Nam",
    "rating": 5.0,
    "reviews": 13,
    "phone": "+84 967 898 413",
    "website": "https://tamlyanhvietmy.com/",
    "category": "Phòng khám",
    "city": "Hanoi",
    "lat": 21.0197717,
    "lng": 105.824417,
    "source": "serpapi:phòng khám tâm lý"
  },
  {
    "name": "YAMATO Rehabilitation Center | ヤマト・リハビリテーションセンター",
    "address": "Việt Nam, Hà Nội, Cầu Giấy, Yên Hoà, Tổ 51, P. Trung Kính",
    "rating": 5.0,
    "reviews": 12,
    "phone": "+84 969 020 032",
    "website": "https://vietnhat-rehab.com/",
    "category": "Phòng khám vật lý trị liệu",
    "city": "Hanoi",
    "lat": 21.0161278,
    "lng": 105.7926129,
    "source": "serpapi:counseling center"
  },
  {
    "name": "Phòng khám vật lý trị liệu Remedy",
    "address": "154 P. Nguyễn Thái Học, Kim Mã, Ba Đình, Hà Nội 100000, Việt Nam",
    "rating": 5.0,
    "reviews": 11,
    "phone": "+84 832 400 600",
    "website": "http://remedy.com.vn/",
    "category": "Phòng khám vật lý trị liệu",
    "city": "Hanoi",
    "lat": 21.0322797,
    "lng": 105.8302842,
    "source": "serpapi:phòng khám tâm lý"
  },
  {
    "name": "Trung Tâm CSSK Hòa An - Như Lý Án Pháp",
    "address": "8/106 Ng. Xã Đàn 2, Nam Đồng, Đống Đa, Hà Nội, Việt Nam",
    "rating": 5.0,
    "reviews": 11,
    "phone": "+84 977 455 443",
    "website": "https://tthoaan.goco.vn/",
    "category": "Bác sĩ liệu pháp",
    "city": "Hanoi",
    "lat": 21.0150726,
    "lng": 105.8306001,
    "source": "serpapi:counseling center"
  },
  {
    "name": "Tâm lý trị liệu PsyOne Hà Nội",
    "address": "số 76 đường 23, Khu đô thị Thành phố Giao lưu, Bắc Từ Liêm, Hà Nội 100000, Việt Nam",
    "rating": 5.0,
    "reviews": 11,
    "phone": "+84 888 771 978",
    "website": null,
    "category": "Dịch vụ sức khỏe tâm thần",
    "city": "Hanoi",
    "lat": 21.0569332,
    "lng": 105.7842084,
    "source": "serpapi:trị liệu tâm lý"
  },
  {
    "name": "Therapévo Việt Nam",
    "address": "42, 11/ngõ 278 P.Tôn Đức Thắng, P, Đống Đa, Hà Nội, Việt Nam",
    "rating": 5.0,
    "reviews": 10,
    "phone": "+84 964 727 910",
    "website": "https://www.facebook.com/share/19oXbVuZ5k/",
    "category": "Nhà tâm lý học",
    "city": "Hanoi",
    "lat": 21.0199386,
    "lng": 105.8295089,
    "source": "serpapi:psychiatrist"
  },
  {
    "name": "Trung tâm tham vấn và trị liệu tâm lý Mindful Care",
    "address": "4 Biệt Thự 2, Khu đô thị Bắc Linh Đàm, Hoàng Mai, Hà Nội 100000, Việt Nam",
    "rating": 5.0,
    "reviews": 9,
    "phone": "+84 983 811 001",
    "website": "https://mindfulcare.vn/",
    "category": "Dịch vụ sức khỏe tâm thần",
    "city": "Hanoi",
    "lat": 20.9686318,
    "lng": 105.8269605,
    "source": "serpapi:trị liệu tâm lý"
  },
  {
    "name": "Phòng Khám T&D Việt Đức",
    "address": "116 Hào Nam, Chợ Dừa, Đống Đa, Hà Nội, Việt Nam",
    "rating": 5.0,
    "reviews": 8,
    "phone": "+84 369 396 116",
    "website": null,
    "category": "Vật lý trị liệu",
    "city": "Hanoi",
    "lat": 21.0248144,
    "lng": 105.8273466,
    "source": "serpapi:psychiatrist"
  },
  {
    "name": "Puressentiel Việt Nam",
    "address": "72 Trần Đăng Ninh, Dịch Vọng, Cầu Giấy, Hà Nội 100000, Việt Nam",
    "rating": 5.0,
    "reviews": 7,
    "phone": "+84 522 866 588",
    "website": null,
    "category": "Cố vấn sức khỏe",
    "city": "Hanoi",
    "lat": 21.0382547,
    "lng": 105.7940821,
    "source": "serpapi:counseling center"
  },
  {
    "name": "Vật lí trị liệu Tâm An",
    "address": "Giếng Ngọc Đình Trung Tự, 102 nhà D tập thể, Phương Liên, Đống Đa, Hà Nội 100000, Việt Nam",
    "rating": 5.0,
    "reviews": 5,
    "phone": "+84 386 949 568",
    "website": null,
    "category": "Vật lý trị liệu",
    "city": "Hanoi",
    "lat": 21.0121984,
    "lng": 105.83845579999999,
    "source": "serpapi:trị liệu tâm lý"
  },
  {
    "name": "Crosspoint Vietnam, LTD.",
    "address": "19 P. Quảng Khánh, Quảng An, Tây Hồ, Hà Nội, Việt Nam",
    "rating": 5.0,
    "reviews": 4,
    "phone": "+84 24 3758 6819",
    "website": "http://www.crosspoint.vn/",
    "category": "Nhà tư vấn",
    "city": "Hanoi",
    "lat": 21.0615757,
    "lng": 105.820189,
    "source": "serpapi:psychologist"
  },
  {
    "name": "Trung tâm Phục hồi chức năng Hoa Mặt Trời",
    "address": "24 Ng. 113 P. Vĩnh Hồ, Thịnh Quang, Đống Đa, Hà Nội, Việt Nam",
    "rating": 5.0,
    "reviews": 4,
    "phone": "+84 353 793 436",
    "website": null,
    "category": "Phòng khám vật lý trị liệu",
    "city": "Hanoi",
    "lat": 21.007529299999998,
    "lng": 105.8191658,
    "source": "serpapi:counseling center"
  },
  {
    "name": "Matthew Ryan Psychological Services",
    "address": "Lane 68 P. Từ Hoa, Street, Tây Hồ, Hà Nội 10000, Việt Nam",
    "rating": 5.0,
    "reviews": 3,
    "phone": "+84 974 897 434",
    "website": "http://matthewryanpsychologist.com/",
    "category": "Nhà tâm lý học",
    "city": "Hanoi",
    "lat": 21.059058999999998,
    "lng": 105.83030889999999,
    "source": "serpapi:psychiatrist"
  },
  {
    "name": "Viện Tâm lý lâm sàng và Tâm lý trị liệu",
    "address": "43 P. Nguyễn Bá Khoản, Trung Hoà, Cầu Giấy, Hà Nội, Việt Nam",
    "rating": 5.0,
    "reviews": 3,
    "phone": "+84 818 582 868",
    "website": "/url?q=https://icpp.vn/&opi=79508299&sa=U&ved=0ahUKEwiDgvDJ2tqQAxUtO0QIHW5SHIgQ61gIpgEoEQ&usg=AOvVaw2XdSm88fCQpeeZ7qUz2cG9",
    "category": "Viện nghiên cứu",
    "city": "Hanoi",
    "lat": 21.0180394,
    "lng": 105.80070289999999,
    "source": "serpapi:tâm lý gia"
  },
  {
    "name": "Hội Tâm lý Trị liệu Việt Nam (VNPA)",
    "address": "29 Hàng Điếu, Phố cổ Hà Nội, Hoàn Kiếm, Hà Nội, Việt Nam",
    "rating": 5.0,
    "reviews": 2,
    "phone": "+84 857 116 118",
    "website": "/url?q=https://hoitamlytrilieu.vn/&opi=79508299&sa=U&ved=0ahUKEwiDgvDJ2tqQAxUtO0QIHW5SHIgQ61gIhQEoEQ&usg=AOvVaw2aCpCzIaB0ReiIfeMcs4WH",
    "category": "Nhà tâm lý học",
    "city": "Hanoi",
    "lat": 21.0330516,
    "lng": 105.84702419999999,
    "source": "serpapi:tâm lý gia"
  },
  {
    "name": "Phòng Chẩn Trị Y Học Cổ Truyển Đỗ Gia( acupressure, acupressure massage)",
    "address": "95H P. Lý Nam Đế, Cửa Đông, Hoàn Kiếm, Hà Nội, Việt Nam",
    "rating": 5.0,
    "reviews": 2,
    "phone": "+84 904 560 031",
    "website": "/url?q=https://www.facebook.com/YHCTDOGIA%3Fmibextid%3DLQQJ4d&opi=79508299&sa=U&ved=0ahUKEwiDgvDJ2tqQAxUtO0QIHW5SHIgQ61gIjwMoEQ&usg=AOvVaw0vRIr-rvea1jJmS1jkdTkS",
    "category": "Phòng khám vật lý trị liệu",
    "city": "Hanoi",
    "lat": 21.0303155,
    "lng": 105.84406519999999,
    "source": "serpapi:tâm lý gia"
  },
  {
    "name": "A... Ra là thế!",
    "address": "2 Ngõ 45 Chùa Bộc Hà Nội, Hanoi City, 100000, Việt Nam",
    "rating": 5.0,
    "reviews": 1,
    "phone": "+84 352 001 528",
    "website": "https://aaaaa.vn/",
    "category": "Người chữa bệnh bằng liệu pháp tâm lý",
    "city": "Hanoi",
    "lat": 21.0067511,
    "lng": 105.8295996,
    "source": "serpapi:mental health clinic"
  },
  {
    "name": "Công ty TNHH Hỗ trợ và Trị liệu Tâm lý VINCENT",
    "address": "51/2 Ng. Liên Việt, Quang Trung, Đống Đa, Hà Nội, Việt Nam",
    "rating": 5.0,
    "reviews": 1,
    "phone": "+84 866 001 286",
    "website": null,
    "category": "Nhà tâm lý học",
    "city": "Hanoi",
    "lat": 21.0140735,
    "lng": 105.8280618,
    "source": "serpapi:tâm lý gia"
  },
  {
    "name": "Công ty TNHH Nghiên cứu Tâm lý và Tâm thần học Việt - Pháp",
    "address": "54 Trần Quốc Vượng, Dịch Vọng Hậu, Cầu Giấy, Hà Nội 11310, Việt Nam",
    "rating": 5.0,
    "reviews": 1,
    "phone": "+84 977 729 396",
    "website": "/url?q=http://www.tamlyvietphap.vn/&opi=79508299&sa=U&ved=0ahUKEwiDgvDJ2tqQAxUtO0QIHW5SHIgQ61gI2gMoEQ&usg=AOvVaw0jR1BrmilNKC4DET01JgQt",
    "category": "Văn phòng công ty",
    "city": "Hanoi",
    "lat": 21.034769999999998,
    "lng": 105.7841424,
    "source": "serpapi:tâm lý gia"
  },
  {
    "name": "Ngộ Tâm",
    "address": "2RGF+PMQ, Chợ Dừa, Đống Đa, Hà Nội, Việt Nam",
    "rating": 5.0,
    "reviews": 1,
    "phone": null,
    "website": null,
    "category": "Người chữa bệnh bằng liệu pháp tâm lý",
    "city": "Hanoi",
    "lat": 21.026825,
    "lng": 105.82424069999999,
    "source": "serpapi:psychiatrist"
  },
  {
    "name": "Nhà Tham Vấn- Trị Liệu Tâm Lý Hà Nội",
    "address": "44, ngõ 390 Đ. Nguyễn Văn Cừ, Bồ Đề, Long Biên, Hà Nội, Việt Nam",
    "rating": 5.0,
    "reviews": 1,
    "phone": null,
    "website": null,
    "category": "Nhà tâm lý học",
    "city": "Hanoi",
    "lat": 21.042928099999997,
    "lng": 105.8792232,
    "source": "serpapi:trị liệu tâm lý"
  },
  {
    "name": "Yoni(Lingam) Massage Tp.Ha Noi - Male/Female Therapists",
    "address": "79d Hồng Hà, Phúc xá, Ba Đình, Hà Nội, Việt Nam",
    "rating": 5.0,
    "reviews": 1,
    "phone": "+84 918 247 811",
    "website": "http://yonispa.vn/",
    "category": null,
    "city": "Hanoi",
    "lat": 21.0437448,
    "lng": 105.84796259999999,
    "source": "serpapi:psychiatrist"
  },
  {
    "name": "Phòng Khám Tâm Lý Tâm Thần Bs Uân- Dr Uan Psychiatric Clinic",
    "address": "S09 Park 12, Khu đô thị Times City, Hoàng Mai, Hà Nội, Việt Nam",
    "rating": 4.9,
    "reviews": 343,
    "phone": "+84 913 511 475",
    "website": "https://phongkhamtamthan.net/",
    "category": "Phòng khám tâm thần",
    "city": "Hanoi",
    "lat": 20.9920303,
    "lng": 105.8660747,
    "source": "serpapi:bác sĩ tâm thần"
  },
  {
    "name": "東京インターナショナルクリニック (NEXWEL HANOI ADVANCED MEDICAL CLINIC)",
    "address": "Hanoi Tourist Building, 10F, 18 P. Lý Thường Kiệt, Phan Chu Trinh, Hoàn Kiếm, Hà Nội, Việt Nam",
    "rating": 4.9,
    "reviews": 131,
    "phone": "+84 24 3661 1919",
    "website": "http://www.tokyo-clinic.tokyo/ja/",
    "category": "Bệnh viện",
    "city": "Hanoi",
    "lat": 21.0222008,
    "lng": 105.8552868,
    "source": "serpapi:mental health clinic"
  },
  {
    "name": "Phòng khám Cơ Xương Khớp HTC",
    "address": "10 P. Lê Quý Đôn, Bạch Đằng, Hai Bà Trưng, Hà Nội 100000, Việt Nam",
    "rating": 4.9,
    "reviews": 92,
    "phone": "+84 963 691 010",
    "website": "http://xuongkhophtc.vn/",
    "category": "Bệnh viện",
    "city": "Hanoi",
    "lat": 21.0130956,
    "lng": 105.8620918,
    "source": "serpapi:counseling center"
  },
  {
    "name": "Văn phòng tham vấn tâm lý Hồng Thu",
    "address": "10 Ngách 61/2 P. Lạc Trung, Vĩnh Tuy, Hai Bà Trưng, Hà Nội, Việt Nam",
    "rating": 4.9,
    "reviews": 49,
    "phone": "+84 988 079 038",
    "website": null,
    "category": "Dịch vụ sức khỏe tâm thần",
    "city": "Hanoi",
    "lat": 21.0026728,
    "lng": 105.8664273,
    "source": "serpapi:tâm lý gia"
  },
  {
    "name": "Phòng khám Tâm thần, Tâm lý Bs Minh Tuấn",
    "address": "3A Ng.46 P. Hào Nam, Chợ Dừa, Đống Đa, Hà Nội 10000, Việt Nam",
    "rating": 4.9,
    "reviews": 47,
    "phone": "+84 913 512 821",
    "website": "http://khamtamthan.com/",
    "category": "Phòng khám",
    "city": "Hanoi",
    "lat": 21.0233803,
    "lng": 105.82716289999999,
    "source": "serpapi:bác sĩ tâm thần"
  },
  {
    "name": "Trung tâm Trị liệu và Phục hồi chức năng MYREHAB - MATSUOKA",
    "address": "4 P. Tôn Thất Tùng, Kim Liên, Đống Đa, Hà Nội, Việt Nam",
    "rating": 4.9,
    "reviews": 20,
    "phone": "+84 1900 3181",
    "website": "https://myrehab-matsuoka.com/",
    "category": "Phòng khám vật lý trị liệu",
    "city": "Hanoi",
    "lat": 21.0058179,
    "lng": 105.83054949999999,
    "source": "serpapi:counseling center"
  },
  {
    "name": "Phòng Tâm Lý Phúc Ngân",
    "address": "59 Đ. Võ Chí Công, Nghĩa Đô, Cầu Giấy, Hà Nội, Việt Nam",
    "rating": 4.9,
    "reviews": 8,
    "phone": "+84 966 877 575",
    "website": "/url?q=http://tamlyphucngan.vn/&opi=79508299&sa=U&ved=0ahUKEwiDgvDJ2tqQAxUtO0QIHW5SHIgQ61gImgUoEQ&usg=AOvVaw3YOWE-cKHcrpDfsbT90oqp",
    "category": "Nhà tâm lý học",
    "city": "Hanoi",
    "lat": 21.050775299999998,
    "lng": 105.8041197,
    "source": "serpapi:tâm lý gia"
  },
  {
    "name": "Spa for Men young & beautiful therapist",
    "address": "39C P. Lý Quốc Sư, Hàng Trống, Hoàn Kiếm, Hà Nội, Việt Nam",
    "rating": 4.8,
    "reviews": 301,
    "phone": "+84 899 888 331",
    "website": null,
    "category": null,
    "city": "Hanoi",
    "lat": 21.029702099999998,
    "lng": 105.8492538,
    "source": "serpapi:psychiatrist"
  },
  {
    "name": "Viet Massage Toan Phat of the Blind",
    "address": "95 P. Hàng Buồm, Hàng Buồm, Hoàn Kiếm, Hà Nội, Việt Nam",
    "rating": 4.8,
    "reviews": 208,
    "phone": "+84 339 890 074",
    "website": null,
    "category": "Bác sĩ trị liệu xoa bóp",
    "city": "Hanoi",
    "lat": 21.035439699999998,
    "lng": 105.8507128,
    "source": "serpapi:psychiatrist"
  },
  {
    "name": "Viện Tâm lý Giáo dục BrainCare",
    "address": "59 Đ. Võ Chí Công, Nghĩa Đô, Cầu Giấy, Hà Nội 100000, Việt Nam",
    "rating": 4.8,
    "reviews": 109,
    "phone": "+84 1900 3307",
    "website": "https://braincare.vn/",
    "category": "Dịch vụ sức khỏe tâm thần",
    "city": "Hanoi",
    "lat": 21.0504921,
    "lng": 105.8041846,
    "source": "serpapi:phòng khám tâm lý"
  },
  {
    "name": "Trị Liệu Tâm Lý Share",
    "address": "9 Ngõ 69 P. Nguyễn Hy Quang, Chợ Dừa, Đống Đa, Hà Nội, Việt Nam",
    "rating": 4.8,
    "reviews": 6,
    "phone": "+84 24 2211 6989",
    "website": "/url?q=http://www.tuvantamly.com.vn/&opi=79508299&sa=U&ved=0ahUKEwiDgvDJ2tqQAxUtO0QIHW5SHIgQ61gIYSgR&usg=AOvVaw0ERqdrtpAv8dL19cbi4R1l",
    "category": "Dịch vụ sức khỏe tâm thần",
    "city": "Hanoi",
    "lat": 21.019463899999998,
    "lng": 105.82617529999999,
    "source": "serpapi:tâm lý gia"
  },
  {
    "name": "Trung Tâm Y Học Thể Thao STARSMEC - Bác sĩ Thể Thao: Nguyễn Trọng Thủy",
    "address": "25, LK3/90 Đ. Nguyễn Tuân, Khu, Thanh Xuân, Hà Nội 100000, Việt Nam",
    "rating": 4.7,
    "reviews": 142,
    "phone": "+84 399 161 111",
    "website": "http://starsmec.vn/",
    "category": "Phòng khám",
    "city": "Hanoi",
    "lat": 20.996678499999998,
    "lng": 105.8064321,
    "source": "serpapi:counseling center"
  },
  {
    "name": "Trung tâm Tâm lý và Phát triển con người NHC Việt Nam - Cơ sở Quan Hoa",
    "address": "235 P. Quan Hoa, Quan Hoa, Cầu Giấy, Hà Nội 100000, Việt Nam",
    "rating": 4.7,
    "reviews": 42,
    "phone": "+84 971 288 008",
    "website": "https://tamlynhc.vn/",
    "category": "Dịch vụ sức khỏe tâm thần",
    "city": "Hanoi",
    "lat": 21.0370991,
    "lng": 105.8059457,
    "source": "serpapi:phòng khám tâm lý"
  },
  {
    "name": "Trung tâm Tâm lý và Phát triển con người NHC Việt Nam - Cơ sở Yên Hòa",
    "address": "TP, Số 37 P. Thâm Tâm, Yên Hoà, Cầu Giấy, Hà Nội 11312, Việt Nam",
    "rating": 4.7,
    "reviews": 41,
    "phone": "+84 982 138 008",
    "website": "/url?q=https://tamlynhc.vn/&opi=79508299&sa=U&ved=0ahUKEwiDgvDJ2tqQAxUtO0QIHW5SHIgQ61gI2QQoEQ&usg=AOvVaw33jjhObUQH3JkSq_otdH_d",
    "category": "Người chữa bệnh bằng liệu pháp tâm lý",
    "city": "Hanoi",
    "lat": 21.016424999999998,
    "lng": 105.7994962,
    "source": "serpapi:tâm lý gia"
  },
  {
    "name": "Trung tâm trị liệu, tham vấn tư vấn tâm lý MindCare",
    "address": "22 Ng. 99 Nguyễn Tuân, P, Thanh Xuân, Hà Nội 10000, Việt Nam",
    "rating": 4.7,
    "reviews": 24,
    "phone": "+84 866 135 885",
    "website": "/url?q=https://mindcare.vn/&opi=79508299&sa=U&ved=0ahUKEwiDgvDJ2tqQAxUtO0QIHW5SHIgQ61gI5gEoEQ&usg=AOvVaw3IQvnSAq3d_HL0rkU1QRzQ",
    "category": "Nhà tâm lý học",
    "city": "Hanoi",
    "lat": 20.996090799999998,
    "lng": 105.8040789,
    "source": "serpapi:tâm lý gia"
  },
  {
    "name": "Viện Tâm Lý Việt - Pháp",
    "address": "54 Trần Quốc Vượng, Dịch Vọng Hậu, Cầu Giấy, Hà Nội 100100, Việt Nam",
    "rating": 4.7,
    "reviews": 15,
    "phone": "+84 977 729 396",
    "website": "/url?q=http://tamlyvietphap.vn/&opi=79508299&sa=U&ved=0ahUKEwiDgvDJ2tqQAxUtO0QIHW5SHIgQ61gItAMoEQ&usg=AOvVaw2tGkpohah0y2VpgTppfAdd",
    "category": "Nhà tâm lý học",
    "city": "Hanoi",
    "lat": 21.034769999999998,
    "lng": 105.7841424,
    "source": "serpapi:tâm lý gia"
  },
  {
    "name": "Phòng chẩn trị y học cổ truyền Đỗ Gia - Địa chỉ xoa bóp bấm huyệt massage châm cứu uy tín tốt nhất nổi tiếng tại Hà Nội",
    "address": "95 H P. Lý Nam Đế, Cửa Đông, Hoàn Kiếm, Hà Nội, Việt Nam",
    "rating": 4.6,
    "reviews": 11,
    "phone": "+84 904 560 031",
    "website": null,
    "category": "Phòng khám chuyên khoa",
    "city": "Hanoi",
    "lat": 21.0303155,
    "lng": 105.84406519999999,
    "source": "serpapi:tâm lý gia"
  },
  {
    "name": "Tổng Đài Tư Vấn Tâm Lý NQH",
    "address": "Chung cư M3-M4, 91 Đ. Nguyễn Chí Thanh, Thành Công, Đ. Nguyễn Chí Thanh, Việt Nam, Đống Đa, Hà Nội 100000, Việt Nam",
    "rating": 4.5,
    "reviews": 8,
    "phone": "+84 1900 6186",
    "website": "/url?q=http://tamlynqh.vn/&opi=79508299&sa=U&ved=0ahUKEwiDgvDJ2tqQAxUtO0QIHW5SHIgQ61gI-QQoEQ&usg=AOvVaw2dV3bsunRV_beh9bStJ68p",
    "category": "Nhà tâm lý học",
    "city": "Hanoi",
    "lat": 21.0200602,
    "lng": 105.8088033,
    "source": "serpapi:tâm lý gia"
  },
  {
    "name": "COOCXE - Nhật ký",
    "address": "3 Tràng Tiền, Hai Bà Trưng, Hà Nội, Việt Nam",
    "rating": 4.3,
    "reviews": 694,
    "phone": "+84 1800 8098",
    "website": "https://www.coocxe.com/",
    "category": "Câu lạc bộ xã hội",
    "city": "Hanoi",
    "lat": 21.024480099999998,
    "lng": 105.8573052,
    "source": "serpapi:psychologist"
  },
  {
    "name": "Viện Sức khỏe Tâm thần Quốc gia",
    "address": "Bệnh Viện Bạch Mai, 78 Đ. Giải Phóng, Phương Đình, Đống Đa, Hà Nội 10000, Việt Nam",
    "rating": 4.1,
    "reviews": 143,
    "phone": "+84 24 3576 5344",
    "website": null,
    "category": "Bệnh viện tâm thần",
    "city": "Hanoi",
    "lat": 21.003429999999998,
    "lng": 105.8387063,
    "source": "serpapi:phòng khám tâm lý"
  },
  {
    "name": "Phòng khám chuyên khoa Yên Hoà",
    "address": "lô i4 Ng. 35 P. Trần Kim Xuyến, Yên Hoà, Cầu Giấy, Hà Nội 11016, Việt Nam",
    "rating": 4.1,
    "reviews": 46,
    "phone": "+84 983 188 689",
    "website": "https://phongkhamyenhoa.vn/",
    "category": "Dịch vụ sức khỏe tâm thần",
    "city": "Hanoi",
    "lat": 21.0186823,
    "lng": 105.79419809999999,
    "source": "serpapi:phòng khám tâm lý"
  },
  {
    "name": "Ann Therapy",
    "address": "33B, Ngõ 603, Lạc Long Quân Hà Nội, Hanoi City, 100000, Việt Nam",
    "rating": 4.1,
    "reviews": 9,
    "phone": "+84 913 651 856",
    "website": "http://anntherapy.com/",
    "category": "Dịch vụ sức khỏe tâm thần",
    "city": "Hanoi",
    "lat": 21.0669535,
    "lng": 105.8090395,
    "source": "serpapi:psychiatrist"
  },
  {
    "name": "Bệnh Viện Tâm Thần Mai Hương",
    "address": "4 P. Hồng Mai, Bạch Mai, Hai Bà Trưng, Hà Nội 100000, Việt Nam",
    "rating": 3.8,
    "reviews": 37,
    "phone": "+84 365 351 932",
    "website": "https://bcare.vn/danh-sach/co-so-y-te/benh-vien-tam-than-ban-ngay-mai-huong-112/chi-tiet",
    "category": "Phòng khám tâm thần",
    "city": "Hanoi",
    "lat": 20.9987984,
    "lng": 105.8512708,
    "source": "serpapi:psychiatrist"
  },
  {
    "name": "Dr. Stephen Allison, MD – Psychiatrist at Hanoi French Hospital",
    "address": "Hanoi French Hospital, 1 Phương Mai, Đống Đa, Hà Nội 100000, Việt Nam",
    "rating": null,
    "reviews": null,
    "phone": "+84 24 3577 1100",
    "website": "https://www.hfh.com.vn/en/home",
    "category": "Bác sĩ tâm thần học",
    "city": "Hanoi",
    "lat": 21.005720099999998,
    "lng": 105.83885719999999,
    "source": "serpapi:psychiatrist"
  },
  {
    "name": "Hanoi Lakeside Therapy",
    "address": null,
    "rating": null,
    "reviews": null,
    "phone": "+84 333 857 712",
    "website": "https://hanoilakesidetherapy.com/",
    "category": "Dịch vụ sức khỏe tâm thần",
    "city": "Hanoi",
    "lat": 21.0687468,
    "lng": 105.8204044,
    "source": "serpapi:CBT therapy"
  },
  {
    "name": "Hanoi Psychotherapy",
    "address": "2 Ng.31 Đ. Xuân Diệu, Quảng An, Tây Hồ, Hà Nội, Việt Nam",
    "rating": null,
    "reviews": null,
    "phone": "+84 356 252 091",
    "website": "https://hanoipsychotherapy.com/",
    "category": "Nhà tư vấn",
    "city": "Hanoi",
    "lat": 21.0630624,
    "lng": 105.8288998,
    "source": "serpapi:psychiatrist"
  },
  {
    "name": "KLP Hanoi Counseling",
    "address": "Hanoi City, Alley 275 Đ. Âu Cơ, Quảng An, Tây Hồ, Hà Nội 124115, Việt Nam",
    "rating": null,
    "reviews": null,
    "phone": "+84 398 126 011",
    "website": "https://www.klpcounseling.com/",
    "category": "Dịch vụ sức khỏe tâm thần",
    "city": "Hanoi",
    "lat": 21.0703255,
    "lng": 105.8249694,
    "source": "serpapi:psychiatrist"
  },
  {
    "name": "Light",
    "address": null,
    "rating": null,
    "reviews": null,
    "phone": "+84 389 452 514",
    "website": null,
    "category": "Nhà tâm lý học",
    "city": "Hanoi",
    "lat": 15.793925199999999,
    "lng": 105.9102332,
    "source": "serpapi:psychologist"
  },
  {
    "name": "Tham Vấn Tâm Lý CBT Psycast",
    "address": "19/24 Ng. Linh Quang, Văn Chương, Đống Đa, Hà Nội, Việt Nam",
    "rating": null,
    "reviews": null,
    "phone": "+84 858 994 594",
    "website": null,
    "category": "Nhà tâm lý học",
    "city": "Hanoi",
    "lat": 21.024143499999997,
    "lng": 105.8370017,
    "source": "serpapi:psychiatrist"
  },
  {
    "name": "Trung Tâm Tư Vấn Trị Liệu Tâm Lý",
    "address": "3 P. Vũ Phạm Hàm, Yên Hoà, Cầu Giấy, Hà Nội, Việt Nam",
    "rating": null,
    "reviews": null,
    "phone": "+84 24 3783 1288",
    "website": null,
    "category": "Phòng khám",
    "city": "Hanoi",
    "lat": 21.0186785,
    "lng": 105.7989386,
    "source": "serpapi:trị liệu tâm lý"
  },
  {
    "name": "Trị Liệu Tâm Lý Psycho",
    "address": "ngách 91 Ng. 185 P. Chùa Láng, Láng Thượng, Đống Đa, Hà Nội, Việt Nam",
    "rating": null,
    "reviews": null,
    "phone": null,
    "website": null,
    "category": "Dịch vụ sức khỏe tâm thần",
    "city": "Hanoi",
    "lat": 21.020723099999998,
    "lng": 105.80273799999999,
    "source": "serpapi:trị liệu tâm lý"
  },
  {
    "name": "TS.BS Nguyễn Lê Hùng",
    "address": "Bui Thi Xuan Hà Nội, Hanoi City, 000084, Việt Nam",
    "rating": null,
    "reviews": null,
    "phone": "+84 935 333 399",
    "website": null,
    "category": "Phòng khám tâm thần",
    "city": "Hanoi",
    "lat": 21.0146628,
    "lng": 105.84982869999999,
    "source": "serpapi:mental health clinic"
  },
  {
    "name": "Tâm lý An Yên",
    "address": "1A P. Đặng Thái Thân, Phan Chu Trinh, Hoàn Kiếm, Hà Nội 100000, Việt Nam",
    "rating": null,
    "reviews": null,
    "phone": "+84 922 685 959",
    "website": "/url?q=http://tamlyanyen.vn/&opi=79508299&sa=U&ved=0ahUKEwiDgvDJ2tqQAxUtO0QIHW5SHIgQ61gIugQoEA&usg=AOvVaw0iwAuxKZ8gNqtbqVSMDYFG",
    "category": "Văn phòng công ty",
    "city": "Hanoi",
    "lat": 21.0228167,
    "lng": 105.85949869999999,
    "source": "serpapi:tâm lý gia"
  },
  {
    "name": "Viện Tâm Lý Giáo Dục \"Chạm\"",
    "address": "41 Ngõ 125 P. Trung Kính, Trung Hoà, Cầu Giấy, Hà Nội 100000, Việt Nam",
    "rating": null,
    "reviews": null,
    "phone": "+84 378 344 269",
    "website": "/url?q=https://cham.edu.vn/&opi=79508299&sa=U&ved=0ahUKEwiDgvDJ2tqQAxUtO0QIHW5SHIgQ61gI6gIoEA&usg=AOvVaw0URAnUJn9CLeP0D-mvH-mE",
    "category": "Dịch vụ sức khỏe tâm thần",
    "city": "Hanoi",
    "lat": 21.013158999999998,
    "lng": 105.8006571,
    "source": "serpapi:tâm lý gia"
  },
  {
    "name": "VẬT LÝ TRỊ LIỆU TÂM PHƯƠNG",
    "address": "343 Đội Cấn, Liễu Giai, Ba Đình, Hà Nội 100000, Việt Nam",
    "rating": null,
    "reviews": null,
    "phone": "+84 357 199 086",
    "website": "https://diensinhhoc.vn/",
    "category": "Vật lý trị liệu",
    "city": "Hanoi",
    "lat": 21.036472,
    "lng": 105.8174841,
    "source": "serpapi:trị liệu tâm lý"
  }
]