[
  {
    "name": "Matthew Ryan Psychological Services",
    "address": "Lane 68 P. Từ Hoa, Street, Tây Hồ, Hà Nội 10000, Việt Nam",
    "rating": 5,
    "reviews": 3,
    "phone": "+84 974 897 434",
    "website": "http://matthewryanpsychologist.com/",
    "category": "Nhà tâm lý học",
    "google_maps_url": null,
    "latitude": 21.059058999999998,
    "longitude": 105.83030889999999
  },
  {
    "name": "Văn phòng tâm lý Miền Hải Đăng",
    "address": "36 Ng. 15 P. Vĩnh Hồ, Thịnh Quang, Đống Đa, Hà Nội, Việt Nam",
    "rating": 5,
    "reviews": 57,
    "phone": "+84 353 144 822",
    "website": "https://tamlymienhaidang.com/",
    "category": "Nhà tâm lý học",
    "google_maps_url": null,
    "latitude": 21.0046563,
    "longitude": 105.8211944
  },
  {
    "name": "Therapévo Việt Nam",
    "address": "42, 11/ngõ 278 P.Tôn Đức Thắng, P, Đống Đa, Hà Nội, Việt Nam",
    "rating": 5,
    "reviews": 10,
    "phone": "+84 964 727 910",
    "website": "https://www.facebook.com/share/19oXbVuZ5k/",
    "category": "Nhà tâm lý học",
    "google_maps_url": null,
    "latitude": 21.0199386,
    "longitude": 105.8295089
  },
  {
    "name": "Hoàng Hải Vân",
    "address": "21 P. Trúc Bạch, Trúc Bạch, Ba Đình, Hà Nội, Việt Nam",
    "rating": 5,
    "reviews": 19,
    "phone": "+84 936 170 809",
    "website": "http://www.hoanghaivan.org/",
    "category": "Nhà tư vấn gia đình",
    "google_maps_url": null,
    "latitude": 21.0487565,
    "longitude": 105.8400484
  },
  {
    "name": "Viện Tâm lý Giáo dục BrainCare",
    "address": "59 Đ. Võ Chí Công, Nghĩa Đô, Cầu Giấy, Hà Nội 100000, Việt Nam",
    "rating": 4.8,
    "reviews": 108,
    "phone": "+84 1900 3307",
    "website": "https://braincare.vn/",
    "category": "Nhà tâm lý học",
    "google_maps_url": null,
    "latitude": 21.0505922,
    "longitude": 105.8042114
  },
  {
    "name": "Trung tâm trị liệu, tham vấn tư vấn tâm lý MindCare",
    "address": "22 Ng. 99 Nguyễn Tuân, P, Thanh Xuân, Hà Nội 10000, Việt Nam",
    "rating": 4.7,
    "reviews": 24,
    "phone": "+84 866 135 885",
    "website": "https://mindcare.vn/",
    "category": "Nhà tâm lý học",
    "google_maps_url": null,
    "latitude": 20.996090799999998,
    "longitude": 105.8040789
  },
  {
    "name": "Công ty TNHH Hỗ trợ và Trị liệu Tâm lý VINCENT",
    "address": "51/2 Ng. Liên Việt, Quang Trung, Đống Đa, Hà Nội, Việt Nam",
    "rating": 5,
    "reviews": 1,
    "phone": "+84 866 001 286",
    "website": null,
    "category": "Nhà tâm lý học",
    "google_maps_url": null,
    "latitude": 21.0140735,
    "longitude": 105.8280618
  },
  {
    "name": "Phòng Tâm Lý Phúc Ngân",
    "address": "59 Đ. Võ Chí Công, Nghĩa Đô, Cầu Giấy, Hà Nội, Việt Nam",
    "rating": 4.9,
    "reviews": 8,
    "phone": "+84 966 877 575",
    "website": "http://tamlyphucngan.vn/",
    "category": "Nhà tâm lý học",
    "google_maps_url": null,
    "latitude": 21.050775299999998,
    "longitude": 105.8041197
  },
  {
    "name": "New Sky - GD & Trị liệu cho trẻ đặc biệt",
    "address": "85 P. Nguyễn Trường Tộ, Trúc Bạch, Ba Đình, Hà Nội 100000, Việt Nam",
    "rating": 5,
    "reviews": 37,
    "phone": "+84 919 071 757",
    "website": "https://www.facebook.com/newsky.gddb",
    "category": "Nhà tâm lý học",
    "google_maps_url": null,
    "latitude": 21.0425912,
    "longitude": 105.84449389999999
  },
  {
    "name": "Viện Tâm Lý Đời Sống - LPI",
    "address": "17 Ng. 23 P. Đỗ Quang, Trung Hoà, Cầu Giấy, Hà Nội 100000, Việt Nam",
    "rating": 5,
    "reviews": 16,
    "phone": "+84 869 627 699",
    "website": "https://tamlydoisong.com/",
    "category": "Nhà tâm lý học",
    "google_maps_url": null,
    "latitude": 21.0116038,
    "longitude": 105.8031518
  },
  {
    "name": "Hanoi Psychotherapy",
    "address": "2 Ng.31 Đ. Xuân Diệu, Quảng An, Tây Hồ, Hà Nội, Việt Nam",
    "rating": null,
    "reviews": null,
    "phone": "+84 356 252 091",
    "website": "https://hanoipsychotherapy.com/",
    "category": "Nhà tư vấn",
    "google_maps_url": null,
    "latitude": 21.0630624,
    "longitude": 105.8288998
  },
  {
    "name": "Ann Therapy",
    "address": "33B, Ngõ 603, Lạc Long Quân Hà Nội, Hanoi City, 100000, Việt Nam",
    "rating": 4.1,
    "reviews": 9,
    "phone": "+84 913 651 856",
    "website": "http://anntherapy.com/",
    "category": "Dịch vụ sức khỏe tâm thần",
    "google_maps_url": null,
    "latitude": 21.0669535,
    "longitude": 105.8090395
  },
  {
    "name": "Tư vấn tâm lý và Y học gia đình Safe and Sound",
    "address": "A12-BT2, Trần Văn Cẩn, phường, Nam Từ Liêm, Hà Nội 100000, Việt Nam",
    "rating": null,
    "reviews": null,
    "phone": "+84 964 778 911",
    "website": "https://sns.org.vn/",
    "category": "Nhà tâm lý học",
    "google_maps_url": null,
    "latitude": 21.064731,
    "longitude": 105.8346522
  },
  {
    "name": "Hội Tâm lý Trị liệu Việt Nam (VNPA)",
    "address": "29 Hàng Điếu, Phố cổ Hà Nội, Hoàn Kiếm, Hà Nội, Việt Nam",
    "rating": 5,
    "reviews": 2,
    "phone": "+84 857 116 118",
    "website": "https://hoitamlytrilieu.vn/",
    "category": "Nhà tâm lý học",
    "google_maps_url": null,
    "latitude": 21.0330516,
    "longitude": 105.84702419999999
  },
  {
    "name": "Trung tâm Tâm lý Giáo dục xanh - Green Edu",
    "address": "26 Ng. 80 P. Trung Kính, Yên Hoà, Cầu Giấy, Hà Nội 122045, Việt Nam",
    "rating": 5,
    "reviews": 1,
    "phone": "+84 968 234 132",
    "website": "https://greenedu.org.vn/",
    "category": "Nhà tâm lý học",
    "google_maps_url": null,
    "latitude": 21.0157408,
    "longitude": 105.79537549999999
  },
  {
    "name": "Trung tâm Tham vấn và Trị liệu Tâm lý Tâm An",
    "address": "79 Ng. 619 Vũ Tông Phan, Khương Đình, Thanh Xuân, Hà Nội 100000, Việt Nam",
    "rating": 5,
    "reviews": 23,
    "phone": "+84 886 332 683",
    "website": "https://trilieutaman.vn/",
    "category": "Nhà tâm lý học",
    "google_maps_url": null,
    "latitude": 20.9835271,
    "longitude": 105.8168941
  },
  {
    "name": "Tham Vấn Tâm Lý CBT Psycast",
    "address": "19/24 Ng. Linh Quang, Văn Chương, Đống Đa, Hà Nội, Việt Nam",
    "rating": null,
    "reviews": null,
    "phone": "+84 858 994 594",
    "website": null,
    "category": "Nhà tâm lý học",
    "google_maps_url": null,
    "latitude": 21.024143499999997,
    "longitude": 105.8370017
  },
  {
    "name": "Trị Liệu Tâm Lý Share",
    "address": "9 Ngõ 69 P. Nguyễn Hy Quang, Chợ Dừa, Đống Đa, Hà Nội, Việt Nam",
    "rating": 4.8,
    "reviews": 6,
    "phone": "+84 24 2211 6989",
    "website": "http://www.tuvantamly.com.vn/",
    "category": "Nhà tâm lý học",
    "google_maps_url": null,
    "latitude": 21.019463899999998,
    "longitude": 105.82617529999999
  },
  {
    "name": "Công ty TNHH Nghiên cứu Tâm lý và Tâm thần học Việt - Pháp",
    "address": "54 Trần Quốc Vượng, Dịch Vọng Hậu, Cầu Giấy, Hà Nội 11310, Việt Nam",
    "rating": 5,
    "reviews": 1,
    "phone": "+84 977 729 396",
    "website": "http://www.tamlyvietphap.vn/",
    "category": "Văn phòng công ty",
    "google_maps_url": null,
    "latitude": 21.034769999999998,
    "longitude": 105.7841424
  },
  {
    "name": "Viện Tâm Lý Việt - Pháp",
    "address": "54 Trần Quốc Vượng, Dịch Vọng Hậu, Cầu Giấy, Hà Nội 100100, Việt Nam",
    "rating": 4.7,
    "reviews": 15,
    "phone": "+84 977 729 396",
    "website": "http://tamlyvietphap.vn/",
    "category": "Nhà tâm lý học",
    "google_maps_url": null,
    "latitude": 21.034769999999998,
    "longitude": 105.7841424
  },
  {
    "name": "Phòng Khám Tâm Lý Tâm Thần Bs Uân- Dr Uan Psychiatric Clinic",
    "address": "S09 Park 12, Khu đô thị Times City, Hoàng Mai, Hà Nội, Việt Nam",
    "rating": 4.9,
    "reviews": 345,
    "phone": "+84 913 511 475",
    "website": "https://phongkhamtamthan.net/",
    "category": "Phòng khám tâm thần",
    "google_maps_url": null,
    "latitude": 20.9920303,
    "longitude": 105.8660747
  },
  {
    "name": "Bệnh Viện Tâm Thần Hà Nội",
    "address": "Ngõ 467 Nguyễn Văn Linh, Phúc Đồng, Long Biên, Hà Nội, Việt Nam",
    "rating": 4.2,
    "reviews": 83,
    "phone": null,
    "website": "http://www.benhvientamthan.com/",
    "category": "Bệnh viện tâm thần",
    "google_maps_url": null,
    "latitude": 21.0342667,
    "longitude": 105.9090597
  },
  {
    "name": "Bệnh Viện Tâm Thần Mai Hương",
    "address": "4 P. Hồng Mai, Bạch Mai, Hai Bà Trưng, Hà Nội 100000, Việt Nam",
    "rating": 3.8,
    "reviews": 37,
    "phone": "+84 365 351 932",
    "website": "https://bcare.vn/danh-sach/co-so-y-te/benh-vien-tam-than-ban-ngay-mai-huong-112/chi-tiet",
    "category": "Phòng khám tâm thần",
    "google_maps_url": null,
    "latitude": 20.9987984,
    "longitude": 105.8512708
  },
  {
    "name": "Dr. Stephen Allison, MD – Psychiatrist at Hanoi French Hospital",
    "address": "Hanoi French Hospital, 1 Phương Mai, Đống Đa, Hà Nội 100000, Việt Nam",
    "rating": null,
    "reviews": null,
    "phone": "+84 24 3577 1100",
    "website": "https://www.hfh.com.vn/en/home",
    "category": "Bác sĩ tâm thần học",
    "google_maps_url": null,
    "latitude": 21.005720099999998,
    "longitude": 105.83885719999999
  },
  {
    "name": "Viện Sức khỏe Tâm thần Quốc gia",
    "address": "Bệnh Viện Bạch Mai, 78 Đ. Giải Phóng, Phương Đình, Đống Đa, Hà Nội 10000, Việt Nam",
    "rating": 4.1,
    "reviews": 143,
    "phone": "+84 24 3576 5344",
    "website": null,
    "category": "Bệnh viện tâm thần",
    "google_maps_url": null,
    "latitude": 21.003429999999998,
    "longitude": 105.8387063
  },
  {
    "name": "INITY",
    "address": "14 P. Võ Văn Dũng, Chợ Dừa, Đống Đa, Hà Nội 100000, Việt Nam",
    "rating": 5,
    "reviews": 17,
    "phone": "+84 919 390 055",
    "website": null,
    "category": "Dịch vụ sức khỏe tâm thần",
    "google_maps_url": null,
    "latitude": 21.0159725,
    "longitude": 105.82355989999999
  },
  {
    "name": "Trung tâm Tâm lý và Phát triển con người NHC Việt Nam - Cơ sở Quan Hoa",
    "address": "235 P. Quan Hoa, Quan Hoa, Cầu Giấy, Hà Nội 100000, Việt Nam",
    "rating": 4.7,
    "reviews": 42,
    "phone": "+84 971 288 008",
    "website": "https://tamlynhc.vn/",
    "category": "Dịch vụ sức khỏe tâm thần",
    "google_maps_url": null,
    "latitude": 21.0370991,
    "longitude": 105.8059457
  },
  {
    "name": "Phòng khám Chuyên khoa Tâm thần Hoàng Yến",
    "address": "12 Ngõ 44 P. Đỗ Quang, Trung Hoà, Cầu Giấy, Hà Nội 100000, Việt Nam",
    "rating": 5,
    "reviews": 47,
    "phone": "+84 974 509 322",
    "website": "https://phongkhamtamthanhoangyen.com/",
    "category": "Phòng khám tâm thần",
    "google_maps_url": null,
    "latitude": 21.0107099,
    "longitude": 105.8022336
  },
  {
    "name": "A... Ra là thế!",
    "address": "2 Ngõ 45 Chùa Bộc Hà Nội, Hanoi City, 100000, Việt Nam",
    "rating": 5,
    "reviews": 1,
    "phone": "+84 352 001 528",
    "website": "https://aaaaa.vn/",
    "category": "Người chữa bệnh bằng liệu pháp tâm lý",
    "google_maps_url": null,
    "latitude": 21.0067511,
    "longitude": 105.8295996
  },
  {
    "name": "Ngộ Tâm",
    "address": "2RGF+PMQ, Chợ Dừa, Đống Đa, Hà Nội, Việt Nam",
    "rating": 5,
    "reviews": 1,
    "phone": null,
    "website": null,
    "category": "Người chữa bệnh bằng liệu pháp tâm lý",
    "google_maps_url": null,
    "latitude": 21.026825,
    "longitude": 105.82424069999999
  },
  {
    "name": "99k",
    "address": "6 P. Nguyễn Ngọc Doãn, Trung Tự, Đống Đa, Hà Nội, Việt Nam",
    "rating": 1,
    "reviews": 3,
    "phone": "+84 989 337 388",
    "website": null,
    "category": "Bệnh viện tâm thần",
    "google_maps_url": null,
    "latitude": 21.007263899999998,
    "longitude": 105.83228249999999
  },
  {
    "name": "Tâm lý trị liệu PsyOne Hà Nội",
    "address": "số 76 đường 23, Khu đô thị Thành phố Giao lưu, Bắc Từ Liêm, Hà Nội 100000, Việt Nam",
    "rating": 5,
    "reviews": 11,
    "phone": "+84 888 771 978",
    "website": null,
    "category": "Người chữa bệnh bằng liệu pháp tâm lý",
    "google_maps_url": null,
    "latitude": 21.0569332,
    "longitude": 105.7842084
  },
  {
    "name": "Văn phòng tham vấn tâm lý Hồng Thu",
    "address": "10 Ngách 61/2 P. Lạc Trung, Vĩnh Tuy, Hai Bà Trưng, Hà Nội, Việt Nam",
    "rating": 4.9,
    "reviews": 49,
    "phone": "+84 988 079 038",
    "website": null,
    "category": "Dịch vụ sức khỏe tâm thần",
    "google_maps_url": null,
    "latitude": 21.0026728,
    "longitude": 105.8664273
  },
  {
    "name": "Metta Healing Hà Nội",
    "address": "10 Ng. 30 P. Trần Quang Diệu, Chợ Dừa, Đống Đa, Hà Nội 11500, Việt Nam",
    "rating": null,
    "reviews": null,
    "phone": "+84 903 146 686",
    "website": null,
    "category": "Người chữa bệnh bằng liệu pháp tâm lý",
    "google_maps_url": null,
    "latitude": 21.016130699999998,
    "longitude": 105.8238583
  },
  {
    "name": "Trung tâm Tâm lý và Phát triển con người NHC Việt Nam - Cơ sở Yên Hòa",
    "address": "TP, Số 37 P. Thâm Tâm, Yên Hoà, Cầu Giấy, Hà Nội 11312, Việt Nam",
    "rating": 4.7,
    "reviews": 41,
    "phone": "+84 982 138 008",
    "website": "https://tamlynhc.vn/",
    "category": "Người chữa bệnh bằng liệu pháp tâm lý",
    "google_maps_url": null,
    "latitude": 21.016424999999998,
    "longitude": 105.7994962
  }
]
