[
  {
    "name": "Phòng Khám Vật Lý Trị Liệu Tân Phú Therapy",
    "address": "642 Đ. Lũy Bán Bích, Tân Thành, Tân Phú, Thành phố Hồ Chí Minh, Việt Nam",
    "rating": 5.0,
    "reviews": 556,
    "phone": "+84 986 864 947",
    "website": "http://tanphutherapy.com/",
    "category": "Phòng khám chuyên khoa",
    "city": "Ho Chi Minh City",
    "lat": 10.7885913,
    "lng": 106.6372909,
    "source": "serpapi:trị liệu tâm lý"
  },
  {
    "name": "Vật lý trị liệu (Tân Phú Therapy Cơ Sở 3)",
    "address": "127A Đ. Trần Thái Tông, Phường 15, Tân Bình, Thành phố Hồ Chí Minh 700000, Việt Nam",
    "rating": 5.0,
    "reviews": 77,
    "phone": "+84 986 864 947",
    "website": "https://tanphutherapy.com/",
    "category": "Vật lý trị liệu",
    "city": "Ho Chi Minh City",
    "lat": 10.8168586,
    "lng": 106.63608289999999,
    "source": "serpapi:trị liệu tâm lý"
  },
  {
    "name": "Phòng Khám Vật lý trị liệu An Tâm",
    "address": "97 Trần Văn Mười, Ấp 3, Hóc Môn, Thành phố Hồ Chí Minh, Việt Nam",
    "rating": 5.0,
    "reviews": 68,
    "phone": "+84 934 822 128",
    "website": "http://vatlytrilieuantam.vn/",
    "category": "Phòng mạch y tế",
    "city": "Ho Chi Minh City",
    "lat": 10.853786999999999,
    "lng": 106.589542,
    "source": "serpapi:trị liệu tâm lý"
  },
  {
    "name": "Tư vấn tâm lý Safe and Sound / Safe and Sound - Mental Health Care",
    "address": "Midtown - The Peak, M8 Đường số 16, Tân Phú, Quận 7, Thành phố Hồ Chí Minh 70000, Việt Nam",
    "rating": 5.0,
    "reviews": 38,
    "phone": "+84 964 778 911",
    "website": "https://sns.org.vn/",
    "category": "Dịch vụ sức khỏe tâm thần",
    "city": "Ho Chi Minh City",
    "lat": 10.7245207,
    "lng": 106.72947309999999,
    "source": "serpapi:mental health clinic"
  },
  {
    "name": "Tập vật lý trị liệu tại nhà người bệnh",
    "address": "619 Điện Biên Phủ, Phường 1, Quận 3, Thành phố Hồ Chí Minh, Việt Nam",
    "rating": 5.0,
    "reviews": 28,
    "phone": "+84 789 703 986",
    "website": "http://dichvuykhoatainha.com/",
    "category": "Bác sĩ điều trị đau",
    "city": "Ho Chi Minh City",
    "lat": 10.7693894,
    "lng": 106.675784,
    "source": "serpapi:trị liệu CBT"
  },
  {
    "name": "PHYSICAL THERAPY (VẬT LÝ TRỊ LIỆU) THERA HOUSE",
    "address": "GOLDEN HOUSE, 90 Nguyễn Hữu Cảnh, Phường 22, Thành phố Hồ Chí Minh, 72324, Việt Nam",
    "rating": 5.0,
    "reviews": 26,
    "phone": "+84 939 560 579",
    "website": "https://www.facebook.com/FUNCTIONLPATTERNSVIETNAM/",
    "category": "Phòng khám vật lý trị liệu",
    "city": "Ho Chi Minh City",
    "lat": 10.7892157,
    "lng": 106.71843679999999,
    "source": "serpapi:counseling center"
  },
  {
    "name": "Phòng khám VLTL Tâm Thịnh | Vật lý trị liệu | Phục hồi chức năng",
    "address": "1018 Lạc Long Quân, Phường 8, Tân Bình, Thành phố Hồ Chí Minh, Việt Nam",
    "rating": 5.0,
    "reviews": 23,
    "phone": "+84 869 967 733",
    "website": "https://www.facebook.com/profile.php?id=61574963804292",
    "category": "Phòng khám",
    "city": "Ho Chi Minh City",
    "lat": 10.7833539,
    "lng": 106.6508357,
    "source": "serpapi:trị liệu tâm lý"
  },
  {
    "name": "Phòng Khám Vật Lý Trị Liệu Tâm Phúc",
    "address": "B22/24 Ấp 2B Tổ 29, Quận, Bình Chánh, Thành phố Hồ Chí Minh 700000, Việt Nam",
    "rating": 5.0,
    "reviews": 15,
    "phone": "+84 967 144 168",
    "website": "https://vatlytrilieutamphuc.com/",
    "category": "Vật lý trị liệu",
    "city": "Ho Chi Minh City",
    "lat": 10.786541999999999,
    "lng": 106.5887078,
    "source": "serpapi:trị liệu tâm lý"
  },
  {
    "name": "Văn phòng Tư vấn tâm lý Tí Tách",
    "address": "190/18 Xóm Đất, Phường 10, Quận 11, thành phố Hồ Chí Minh (Vào hẻm 395 Minh Phụng, 15 mét quẹo phải, Thành phố Hồ Chí Minh, Việt Nam",
    "rating": 5.0,
    "reviews": 14,
    "phone": "+84 975 465 590",
    "website": null,
    "category": "Dịch vụ sức khỏe tâm thần",
    "city": "Ho Chi Minh City",
    "lat": 10.7600971,
    "lng": 106.643873,
    "source": "serpapi:phòng khám tâm lý"
  },
  {
    "name": "HAPPY PARENTING - Tâm lý Trẻ em & Gia đình",
    "address": "Tầng hầm Basement, 29 Đ. Số 10, Khu đô thị Sala, Thủ Đức, Thành phố Hồ Chí Minh 700000, Việt Nam",
    "rating": 5.0,
    "reviews": 12,
    "phone": "+84 377 727 368",
    "website": "https://happyparenting.vn/",
    "category": "Nhà tâm lý học",
    "city": "Ho Chi Minh City",
    "lat": 10.7721623,
    "lng": 106.7266799,
    "source": "serpapi:mental health clinic"
  },
  {
    "name": "An Nhiên Sống Khỏe",
    "address": "102 Đ. Phan Văn Hớn, Tân Thới Nhất, Quận 12, Thành phố Hồ Chí Minh 71510, Việt Nam",
    "rating": 5.0,
    "reviews": 10,
    "phone": "+84 362 378 119",
    "website": "https://www.facebook.com/profile.php?id=61566771953828",
    "category": "Cố vấn sức khỏe",
    "city": "Ho Chi Minh City",
    "lat": 10.8285165,
    "lng": 106.6197538,
    "source": "serpapi:psychologist"
  },
  {
    "name": "Holistic Intergrative Therapy",
    "address": "1/14 Nguyễn Cảnh Dị, Phường 4, Tân Bình, Thành phố Hồ Chí Minh 72100, Việt Nam",
    "rating": 5.0,
    "reviews": 10,
    "phone": "+84 968 499 608",
    "website": "https://www.facebook.com/profile.php?id=61561044594620&mibextid=LQQJ4d",
    "category": "Dịch vụ sức khỏe tâm thần",
    "city": "Ho Chi Minh City",
    "lat": 10.8056894,
    "lng": 106.66198709999999,
    "source": "serpapi:psychiatrist"
  },
  {
    "name": "MHC+",
    "address": "Hai Bà Trưng, Phường Võ Thị Sáu, Quận 3, Thành phố Hồ Chí Minh 70000, Việt Nam",
    "rating": 5.0,
    "reviews": 10,
    "phone": "+84 916 474 885",
    "website": "http://linkedin.com/in/xuyenphanmhc",
    "category": "Dịch vụ sức khỏe tâm thần",
    "city": "Ho Chi Minh City",
    "lat": 10.7913639,
    "lng": 106.68641,
    "source": "serpapi:mental health clinic"
  },
  {
    "name": "Phòng Khám Nhi và Tâm Lý BABY DINO Quận Tân Phú",
    "address": "120B Lê Niệm, Phú Thạnh, Tân Phú, Thành phố Hồ Chí Minh 700000, Việt Nam",
    "rating": 5.0,
    "reviews": 9,
    "phone": "+84 917 033 138",
    "website": "https://babydino.vn/",
    "category": "Phòng khám",
    "city": "Ho Chi Minh City",
    "lat": 10.7804769,
    "lng": 106.6247901,
    "source": "serpapi:phòng khám tâm lý"
  },
  {
    "name": "Phòng tham vấn tâm lý - trị liệu 3C",
    "address": "4-6 Ngô Thời Nhiệm, Phường 15, Phú Nhuận, Thành phố Hồ Chí Minh, Việt Nam",
    "rating": 5.0,
    "reviews": 7,
    "phone": "+84 333 024 100",
    "website": "http://www.tamly3c.com/",
    "category": "Văn phòng công ty",
    "city": "Ho Chi Minh City",
    "lat": 10.793275699999999,
    "lng": 106.68307709999999,
    "source": "serpapi:trị liệu tâm lý"
  },
  {
    "name": "Leonardo Therapy Center",
    "address": "111 Mỹ Kim 3, Tân Phong, Quận 7, Thành phố Hồ Chí Minh, Việt Nam",
    "rating": 5.0,
    "reviews": 5,
    "phone": null,
    "website": "https://leonardotherapycenter.com/",
    "category": "Dịch vụ sức khỏe tâm thần",
    "city": "Ho Chi Minh City",
    "lat": 10.7242336,
    "lng": 106.7154049,
    "source": "serpapi:counseling center"
  },
  {
    "name": "Trung Tâm Đào Tạo và Can Thiệp Tâm Lý - Âm Ngữ Phát Triển Tiềm Năng",
    "address": "Nguyễn Cửu Vân, Phường 17, Bình Thạnh, Thành phố Hồ Chí Minh 72300, Việt Nam",
    "rating": 5.0,
    "reviews": 5,
    "phone": "+84 981 099 229",
    "website": "https://phattrientiemnang.wixsite.com/daytretuky",
    "category": "Nhà tâm lý học",
    "city": "Ho Chi Minh City",
    "lat": 10.7965228,
    "lng": 106.7079691,
    "source": "serpapi:counseling center"
  },
  {
    "name": "An Huỳnh Psychotherapy",
    "address": "158 Nguyễn Văn Thủ, Đa Kao, Quận 1, Thành phố Hồ Chí Minh 700000, Việt Nam",
    "rating": 5.0,
    "reviews": 4,
    "phone": "+84 386 590 400",
    "website": "https://anhuynhtherapy.com/",
    "category": "Người chữa bệnh bằng liệu pháp tâm lý",
    "city": "Ho Chi Minh City",
    "lat": 10.787799399999999,
    "lng": 106.6969218,
    "source": "serpapi:psychologist"
  },
  {
    "name": "bác sỹ Nghĩa tâm thần",
    "address": "265/47 Đ. Nguyễn Thái Sơn, Phường 7, Gò Vấp, Thành phố Hồ Chí Minh, Việt Nam",
    "rating": 5.0,
    "reviews": 4,
    "phone": "+84 909 298 405",
    "website": null,
    "category": "Bệnh viện",
    "city": "Ho Chi Minh City",
    "lat": 10.826563799999999,
    "lng": 106.68834109999999,
    "source": "serpapi:bác sĩ tâm thần"
  },
  {
    "name": "Viện Tâm Lý Xã Hội Quốc Tế Mỹ",
    "address": "Công Hữu, 209/21b Tôn Thất Thuyết, Phường 3, Quận 4, Thành phố Hồ Chí Minh 700000, Việt Nam",
    "rating": 5.0,
    "reviews": 4,
    "phone": "+84 932 701 919",
    "website": "http://aipi.edu.vn/",
    "category": "Người chữa bệnh bằng liệu pháp tâm lý",
    "city": "Ho Chi Minh City",
    "lat": 10.7545182,
    "lng": 106.69894869999999,
    "source": "serpapi:trị liệu tâm lý"
  },
  {
    "name": "Vật lý trị liệu Phúc Tâm",
    "address": "119 Ba Vân, Phường 14, Tân Bình, Thành phố Hồ Chí Minh 70000, Việt Nam",
    "rating": 5.0,
    "reviews": 4,
    "phone": "+84 906 923 916",
    "website": null,
    "category": "Phòng khám",
    "city": "Ho Chi Minh City",
    "lat": 10.795748999999999,
    "lng": 106.6400103,
    "source": "serpapi:trị liệu tâm lý"
  },
  {
    "name": "Phòng khám chuyên khoa vật lý trị liệu phcn Chí anh thành tâm",
    "address": "136A đường Đ. Trần Thị Trọng, Phường 15, Tân Bình, Thành phố Hồ Chí Minh, Việt Nam",
    "rating": 5.0,
    "reviews": 3,
    "phone": "+84 913 894 674",
    "website": null,
    "category": "Phòng khám vật lý trị liệu",
    "city": "Ho Chi Minh City",
    "lat": 10.8271679,
    "lng": 106.63829849999999,
    "source": "serpapi:phòng khám tâm lý"
  },
  {
    "name": "Phòng Khám Tâm Thần - Tâm Lý Nhi 315 - Nguyễn Văn Trỗi - TPHCM",
    "address": "44 Đ. Nguyễn Văn Trỗi, Phường 15, Phú Nhuận, Thành phố Hồ Chí Minh 70000, Việt Nam",
    "rating": 5.0,
    "reviews": 3,
    "phone": "+84 908 080 315",
    "website": "https://www.tamlynhi315.com/",
    "category": "Phòng khám",
    "city": "Ho Chi Minh City",
    "lat": 10.7938005,
    "lng": 106.6789446,
    "source": "serpapi:bác sĩ tâm thần"
  },
  {
    "name": "Văn Phòng Tâm Lý Trị Liệu NewHope",
    "address": "18bis/16 Hẻm 18 Bis Nguyễn Thị Minh Khai, Đa Kao, Quận 1, Thành phố Hồ Chí Minh, Việt Nam",
    "rating": 5.0,
    "reviews": 3,
    "phone": "+84 899 893 593",
    "website": "http://www.tamlytrilieunewhope.com/",
    "category": "Người chữa bệnh bằng liệu pháp tâm lý",
    "city": "Ho Chi Minh City",
    "lat": 10.785791999999999,
    "lng": 106.6994957,
    "source": "serpapi:trị liệu tâm lý"
  },
  {
    "name": "Phòng Khám Chuyên Khoa Thần Kinh - Tâm Thần Bác Sĩ Lê Đỗ Hưng",
    "address": "Số 13 Đ. Hàn Hải Nguyên, Phường 10, Quận 11, Thành phố Hồ Chí Minh, Việt Nam",
    "rating": 5.0,
    "reviews": 2,
    "phone": "+84 28 3963 4445",
    "website": null,
    "category": "Bác sĩ chuyên khoa thần kinh",
    "city": "Ho Chi Minh City",
    "lat": 10.7590223,
    "lng": 106.6451453,
    "source": "serpapi:bác sĩ tâm thần"
  },
  {
    "name": "Phòng Khám Tâm lý - Tâm thần kinh Nam Việt",
    "address": "919 Đ. Phạm Văn Đồng, Linh Tây, Thủ Đức, Thành phố Hồ Chí Minh 180000, Việt Nam",
    "rating": 5.0,
    "reviews": 2,
    "phone": null,
    "website": null,
    "category": "Phòng khám tâm thần",
    "city": "Ho Chi Minh City",
    "lat": 10.858393,
    "lng": 106.7518353,
    "source": "serpapi:bác sĩ tâm thần"
  },
  {
    "name": "Tham vấn trị liệu tâm lý HILA PSY",
    "address": "257/78 Bình Thành, Bình Hưng Hoà B, Bình Tân, Thành phố Hồ Chí Minh, Việt Nam",
    "rating": 5.0,
    "reviews": 2,
    "phone": "+84 774 402 005",
    "website": "https://hila.asia/",
    "category": "Nhà tâm lý học",
    "city": "Ho Chi Minh City",
    "lat": 10.8093566,
    "lng": 106.5863729,
    "source": "serpapi:trị liệu tâm lý"
  },
  {
    "name": "Tranquil Therapy Private Practice",
    "address": "158 Nguyễn Văn Thủ, Đa Kao, Quận 1, Thành phố Hồ Chí Minh 70000, Việt Nam",
    "rating": 5.0,
    "reviews": 2,
    "phone": null,
    "website": "http://www.tamly.org/",
    "category": "Dịch vụ sức khỏe tâm thần",
    "city": "Ho Chi Minh City",
    "lat": 10.787799,
    "lng": 106.696922,
    "source": "serpapi:trị liệu CBT"
  },
  {
    "name": "Vietnam Institute of Psychology",
    "address": "9D8 Siagon Pearl Villas, 92 Nguyễn Hữu Cảnh, Ward 22, Bình Thạnh, Thành phố Hồ Chí Minh 72324, Việt Nam",
    "rating": 5.0,
    "reviews": 2,
    "phone": "+84 28 7303 9848",
    "website": "http://www.vietnampsychology.com/",
    "category": "Dịch vụ sức khỏe tâm thần",
    "city": "Ho Chi Minh City",
    "lat": 10.7884157,
    "lng": 106.7191893,
    "source": "serpapi:psychologist"
  },
  {
    "name": "B@y Khôi - Gỡ Rối Tơ Lòng",
    "address": "169 Lê Đình Thám, Tân Quý, Tân Phú, Thành phố Hồ Chí Minh 70000, Việt Nam",
    "rating": 5.0,
    "reviews": 1,
    "phone": "+84 877 239 686",
    "website": null,
    "category": "Người chữa bệnh bằng liệu pháp tâm lý",
    "city": "Ho Chi Minh City",
    "lat": 10.7971598,
    "lng": 106.6255729,
    "source": "serpapi:psychiatrist"
  },
  {
    "name": "Frances Moxon Counselling I Therapy Vietnam",
    "address": "18 Hẻm 85 Phạm Viết Chánh, Phường 19, Bình Thạnh, Thành phố Hồ Chí Minh, Việt Nam",
    "rating": 5.0,
    "reviews": 1,
    "phone": null,
    "website": "http://therapyvietnam.com/",
    "category": "Người chữa bệnh bằng liệu pháp tâm lý",
    "city": "Ho Chi Minh City",
    "lat": 10.7908241,
    "lng": 106.71290549999999,
    "source": "serpapi:psychologist"
  },
  {
    "name": "Touching Soul Center",
    "address": "80 Đ. Đặng Văn Ngữ, Phường 10, Phú Nhuận, Thành phố Hồ Chí Minh, Việt Nam",
    "rating": 5.0,
    "reviews": 1,
    "phone": null,
    "website": null,
    "category": "Người chữa bệnh bằng liệu pháp tâm lý",
    "city": "Ho Chi Minh City",
    "lat": 10.7945633,
    "lng": 106.6689785,
    "source": "serpapi:counseling center"
  },
  {
    "name": "Trị Liệu Tâm Lý Đại Quang Minh",
    "address": "575/62 Cách Mạng Tháng Tám, Phường 15, Quận 10, Thành phố Hồ Chí Minh, Việt Nam",
    "rating": 5.0,
    "reviews": 1,
    "phone": "+84 782 455 454",
    "website": null,
    "category": "Người chữa bệnh bằng liệu pháp tâm lý",
    "city": "Ho Chi Minh City",
    "lat": 10.782340099999999,
    "lng": 106.6689497,
    "source": "serpapi:trị liệu tâm lý"
  },
  {
    "name": "Tâm Lý Phúc Thông",
    "address": "204/12 Đ. Cao Đạt, Phường 1, Quận 5, Thành phố Hồ Chí Minh 70000, Việt Nam",
    "rating": 5.0,
    "reviews": 1,
    "phone": "+84 938 126 438",
    "website": "https://tamlyphucthong.vn/",
    "category": "Dịch vụ sức khỏe tâm thần",
    "city": "Ho Chi Minh City",
    "lat": 10.7547675,
    "lng": 106.6826366,
    "source": "serpapi:mental health clinic"
  },
  {
    "name": "Văn phòng Tâm lý và Đời Sống",
    "address": "4 Đ. Phan Chu Trinh, Phường 12, Bình Thạnh, Thành phố Hồ Chí Minh, Việt Nam",
    "rating": 5.0,
    "reviews": 1,
    "phone": "+84 979 721 331",
    "website": null,
    "category": "Dịch vụ sức khỏe tâm thần",
    "city": "Ho Chi Minh City",
    "lat": 10.816355999999999,
    "lng": 106.701314,
    "source": "serpapi:mental health clinic"
  },
  {
    "name": "Vật Lý Trị Liệu Thanh Tâm 3",
    "address": "203 Đ. Lê Văn Sỹ, Phường 13, Phú Nhuận, Thành phố Hồ Chí Minh, Việt Nam",
    "rating": 5.0,
    "reviews": 1,
    "phone": null,
    "website": null,
    "category": "Phòng khám",
    "city": "Ho Chi Minh City",
    "lat": 10.7928898,
    "lng": 106.6699242,
    "source": "serpapi:trị liệu tâm lý"
  },
  {
    "name": "Phòng Khám Đông Y Tâm An",
    "address": "96-98 Đ. Gò Dầu, Tân Quý, Tân Phú, Thành phố Hồ Chí Minh 700000, Việt Nam",
    "rating": 4.9,
    "reviews": 205,
    "phone": "+84 938 802 809",
    "website": "https://vatlytrilieutaman.com/",
    "category": "Phòng khám vật lý trị liệu",
    "city": "Ho Chi Minh City",
    "lat": 10.7960253,
    "lng": 106.6256671,
    "source": "serpapi:phòng khám tâm lý"
  },
  {
    "name": "Trung tâm tham vấn - tư vấn tâm lý Thanh Bình PSY",
    "address": "5G7 Đường DCT9, Đông Hưng Thuận, Quận 12, Thành phố Hồ Chí Minh 700000, Việt Nam",
    "rating": 4.9,
    "reviews": 66,
    "phone": "+84 372 951 520",
    "website": "https://thanhbinhpsy.com/",
    "category": "Phòng khám tâm thần",
    "city": "Ho Chi Minh City",
    "lat": 10.840499399999999,
    "lng": 106.62150849999999,
    "source": "serpapi:phòng khám tâm lý"
  },
  {
    "name": "Phòng Khám Thiên Thanh | Phòng Khám Trị Liệu Tân Bình | Vật Lý Trị Liệu Tân Bình",
    "address": "Phạm Văn Bạch, Phường 15, Tân Bình, Thành phố Hồ Chí Minh, Việt Nam",
    "rating": 4.9,
    "reviews": 27,
    "phone": "+84 979 856 254",
    "website": "http://phongkhamthienthanh.com/",
    "category": "Vật lý trị liệu",
    "city": "Ho Chi Minh City",
    "lat": 10.816585499999999,
    "lng": 106.6346641,
    "source": "serpapi:psychiatrist"
  },
  {
    "name": "Vật lý trị liệu Hoa Nam cs2",
    "address": "342 Đ. Độc Lập, Tân Quý, Tân Phú, Thành phố Hồ Chí Minh 70000, Việt Nam",
    "rating": 4.9,
    "reviews": 24,
    "phone": "+84 354 433 448",
    "website": "https://vatlytrilieuhoanam.com/",
    "category": "Vật lý trị liệu",
    "city": "Ho Chi Minh City",
    "lat": 10.793578799999999,
    "lng": 106.6257744,
    "source": "serpapi:psychiatrist"
  },
  {
    "name": "Thần Kinh Tâm Lý - Bs Xuân Điền",
    "address": "333/6b Đ. Lê Văn Sỹ, Phường, Tân Bình, Thành phố Hồ Chí Minh, Việt Nam",
    "rating": 4.9,
    "reviews": 7,
    "phone": "+84 938 655 086",
    "website": null,
    "category": "Nhà tâm lý học",
    "city": "Ho Chi Minh City",
    "lat": 10.794881199999999,
    "lng": 106.6661237,
    "source": "serpapi:bác sĩ tâm thần"
  },
  {
    "name": "Saigon Psychub - Phòng Tâm Lý Sài Gòn",
    "address": "AQua 2, Vinhomes Golden River Sài Gòn, Aqua 2, Bến Nghé, Quận 1, Thành phố Hồ Chí Minh, Việt Nam",
    "rating": 4.8,
    "reviews": 31,
    "phone": "+84 866 045 054",
    "website": "http://www.psychub.vn/",
    "category": "Người chữa bệnh bằng liệu pháp tâm lý",
    "city": "Ho Chi Minh City",
    "lat": 10.786598,
    "lng": 106.711207,
    "source": "serpapi:trị liệu CBT"
  },
  {
    "name": "Điều Trị Đau Lưng - Đau Cổ Vai Gáy - Tê Tay Tê Chân Hiệu Quả - Xương Khớp Quận Tân Phú",
    "address": "92 đường Nguyễn Hữu Dật, Tây Thạnh, Tân Phú, Thành phố Hồ Chí Minh 700000, Việt Nam",
    "rating": 4.8,
    "reviews": 21,
    "phone": "+84 774 666 628",
    "website": "https://xuongkhopdrloan.com/",
    "category": "Bác sĩ trị liệu xoa bóp",
    "city": "Ho Chi Minh City",
    "lat": 10.807800499999999,
    "lng": 106.6314046,
    "source": "serpapi:psychiatrist"
  },
  {
    "name": "NT Clinic | Phòng Khám Tâm lý Y khoa NT",
    "address": "71 Đ. Số 5, Khu đô Thị Vạn Phúc, Thủ Đức, Thành phố Hồ Chí Minh 70000, Việt Nam",
    "rating": 4.8,
    "reviews": 17,
    "phone": "+84 987 560 556",
    "website": "http://tamlyykhoa.com/",
    "category": "Bác sĩ tâm lý học thần kinh",
    "city": "Ho Chi Minh City",
    "lat": 10.8412391,
    "lng": 106.7121659,
    "source": "serpapi:phòng khám tâm lý"
  },
  {
    "name": "Phòng khám Vật lí trị liệu Ngọc Đức",
    "address": "06 Đường Số 6B, khu dân cư Vĩnh Lộc, Bình Tân, Thành phố Hồ Chí Minh, Việt Nam",
    "rating": 4.8,
    "reviews": 13,
    "phone": "+84 907 289 505",
    "website": "http://ngocduc.com.vn/",
    "category": "Vật lý trị liệu",
    "city": "Ho Chi Minh City",
    "lat": 10.8045376,
    "lng": 106.5914332,
    "source": "serpapi:psychiatrist"
  },
  {
    "name": "Phòng Khám Tâm Thần BS Lê Đỗ Hưng",
    "address": "13 Đ. Hàn Hải Nguyên, Phường 16, Quận 11, Thành phố Hồ Chí Minh, Việt Nam",
    "rating": 4.8,
    "reviews": 5,
    "phone": "+84 903 778 600",
    "website": null,
    "category": "Phòng khám chuyên khoa",
    "city": "Ho Chi Minh City",
    "lat": 10.757776,
    "lng": 106.65078199999999,
    "source": "serpapi:bác sĩ tâm thần"
  },
  {
    "name": "Trung Tâm Tham Vấn Trị Liệu HAPPY Life",
    "address": "59/13 Đ. TL 37, Thạnh Lộc, Quận 12, Thành phố Hồ Chí Minh 70000, Việt Nam",
    "rating": 4.8,
    "reviews": 5,
    "phone": "+84 928 828 399",
    "website": null,
    "category": "Trung tâm chăm sóc trẻ em",
    "city": "Ho Chi Minh City",
    "lat": 10.8792644,
    "lng": 106.6883469,
    "source": "serpapi:mental health clinic"
  },
  {
    "name": "Trung tâm Tâm lý và Phát triển con người NHC Việt Nam - Cơ sở Hoàng Hoa Thám",
    "address": "107 Hoàng Hoa Thám, Phường 7, Bình Thạnh, Thành phố Hồ Chí Minh 72315, Việt Nam",
    "rating": 4.7,
    "reviews": 41,
    "phone": "+84 962 418 008",
    "website": "https://tamlynhc.vn/",
    "category": "Nhà tâm lý học",
    "city": "Ho Chi Minh City",
    "lat": 10.8074382,
    "lng": 106.6891205,
    "source": "serpapi:psychologist"
  },
  {
    "name": "Trung tâm tham vấn, tư vấn tâm lý MindCare",
    "address": "35 Hoàng Diệu, Phường 13, Quận 4, Thành phố Hồ Chí Minh, Việt Nam",
    "rating": 4.7,
    "reviews": 15,
    "phone": "+84 866 135 885",
    "website": "https://mindcare.vn/",
    "category": "Nhà tâm lý học",
    "city": "Ho Chi Minh City",
    "lat": 10.764792,
    "lng": 106.706949,
    "source": "serpapi:trị liệu tâm lý"
  },
  {
    "name": "VIỆN TƯ VẤN TÂM LÝ SUNNYCARE (trực tiếp hoặc online)",
    "address": "Landmark Plus, 208 Nguyễn Hữu Cảnh, Phường 22, Bình Thạnh, Thành phố Hồ Chí Minh 700000, Việt Nam",
    "rating": 4.6,
    "reviews": 103,
    "phone": "+84 28 7300 6848",
    "website": "https://sunnycare.vn/",
    "category": "Nhà tâm lý học",
    "city": "Ho Chi Minh City",
    "lat": 10.7955661,
    "lng": 106.7192086,
    "source": "serpapi:phòng khám tâm lý"
  },
  {
    "name": "Trung tâm Tâm lý và Phát triển con người NHC Việt Nam - Cơ sở Phan Chu Trinh",
    "address": "18 Phan Chu Trinh, Phường 13, Bình Thạnh, Thành phố Hồ Chí Minh, Việt Nam",
    "rating": 4.6,
    "reviews": 43,
    "phone": "+84 962 998 008",
    "website": "https://tamlynhc.vn/",
    "category": "Nhà tâm lý học",
    "city": "Ho Chi Minh City",
    "lat": 10.8186985,
    "lng": 106.7008384,
    "source": "serpapi:trị liệu tâm lý"
  },
  {
    "name": "Phòng Khám Tâm Lý Nhi Đồng",
    "address": "34 Đường số 20, Phường 11, Quận 6, Thành phố Hồ Chí Minh 70000, Việt Nam",
    "rating": 4.6,
    "reviews": 34,
    "phone": "+84 981 502 721",
    "website": "http://www.tamlynhidong.vn/",
    "category": "Phòng khám",
    "city": "Ho Chi Minh City",
    "lat": 10.7440076,
    "lng": 106.62679999999999,
    "source": "serpapi:phòng khám tâm lý"
  },
  {
    "name": "Phòng Tham vấn và Trị liệu tâm lý Nụ Cười Trái Tim",
    "address": "Đ. Thống Nhất/854/43 Cầu Bến Phân, Phường 15, Gò Vấp, Thành phố Hồ Chí Minh 700000, Việt Nam",
    "rating": 4.6,
    "reviews": 5,
    "phone": "+84 907 527 156",
    "website": "http://www.nucuoitraitim.com/",
    "category": "Nhà tâm lý học",
    "city": "Ho Chi Minh City",
    "lat": 10.854914599999999,
    "lng": 106.6665036,
    "source": "serpapi:trị liệu tâm lý"
  },
  {
    "name": "Tư vấn tâm lý Better Living",
    "address": "340C/21 Đ. Hoàng Văn Thụ, Phường 4, Tân Bình, Thành phố Hồ Chí Minh 700000, Việt Nam",
    "rating": 4.6,
    "reviews": 5,
    "phone": "+84 913 575 302",
    "website": "http://betterliving.edu.vn/",
    "category": "Nhà tâm lý học",
    "city": "Ho Chi Minh City",
    "lat": 10.797568,
    "lng": 106.65704199999999,
    "source": "serpapi:trị liệu tâm lý"
  },
  {
    "name": "Hero’s Journey Therapy",
    "address": null,
    "rating": 4.5,
    "reviews": 13,
    "phone": "+84 783 450 380",
    "website": "https://herosjourneytherapy.com/",
    "category": "Người chữa bệnh bằng liệu pháp tâm lý",
    "city": "Ho Chi Minh City",
    "lat": 15.793925199999999,
    "lng": 105.9102332,
    "source": "serpapi:psychiatrist"
  },
  {
    "name": "Phòng Khám Tâm Thần Kinh - Bác Sĩ Đặng Thế Ân",
    "address": "91 Bình Lợi, Phường 13, Bình Thạnh, Thành phố Hồ Chí Minh, Việt Nam",
    "rating": 4.5,
    "reviews": 13,
    "phone": "+84 903 780 952",
    "website": "https://timbenhvien.vn/chi-tiet/phong-kham-tam-than-kinh---bs.-dang-the-an/2041",
    "category": "Bác sĩ tâm thần học",
    "city": "Ho Chi Minh City",
    "lat": 10.829678999999999,
    "lng": 106.705612,
    "source": "serpapi:bác sĩ tâm thần"
  },
  {
    "name": "Magic Mandala Healing",
    "address": "49 Đường số 4, Phường 11, Gò Vấp, Thành phố Hồ Chí Minh 700000, Việt Nam",
    "rating": 4.5,
    "reviews": 2,
    "phone": "+84 858 210 444",
    "website": null,
    "category": "Người chữa bệnh bằng liệu pháp tâm lý",
    "city": "Ho Chi Minh City",
    "lat": 10.847963799999999,
    "lng": 106.6585016,
    "source": "serpapi:mental health clinic"
  },
  {
    "name": "Trung tâm Tư vấn Trị liệu Tâm lý Trẻ em AVS",
    "address": "Lầu 3, Trường mầm non dân lập quốc tế Mỹ Úc Số 25-27, 29 Đường Số 5 - Cư xá Bình Thới, Phường 8, Quận 11, Thành phố Hồ Chí Minh, Việt Nam",
    "rating": 4.5,
    "reviews": 2,
    "phone": "+84 708 316 378",
    "website": "http://trilieutamly.edu.vn/",
    "category": "Nhà tâm thần học trẻ em",
    "city": "Ho Chi Minh City",
    "lat": 10.762342199999999,
    "lng": 106.6487143,
    "source": "serpapi:trị liệu tâm lý"
  },
  {
    "name": "Phục Hồi Chức Năng Ngọc Đức",
    "address": "chung cư, Lê Thị Riêng/Lô H/001 Nguyễn Giản Thanh, Phường 15, Quận 10, Thành phố Hồ Chí Minh, Việt Nam",
    "rating": 4.4,
    "reviews": 28,
    "phone": "+84 906 700 345",
    "website": "https://ngocduc.com.vn/",
    "category": "Phòng khám vật lý trị liệu",
    "city": "Ho Chi Minh City",
    "lat": 10.7832621,
    "lng": 106.6630292,
    "source": "serpapi:psychiatrist"
  },
  {
    "name": "Trung tâm Pháp y Tâm thần Khu vực TP. Hồ Chí Minh",
    "address": "154 Đ. Hồng Bàng, Phường 12, Quận 5, Thành phố Hồ Chí Minh, Việt Nam",
    "rating": 4.4,
    "reviews": 27,
    "phone": null,
    "website": "https://ttphapy.medinet.gov.vn/Default.aspx",
    "category": "Bệnh viện chuyên khoa",
    "city": "Ho Chi Minh City",
    "lat": 10.755039,
    "lng": 106.6595478,
    "source": "serpapi:trị liệu CBT"
  },
  {
    "name": "Centre Médical International (CMI)",
    "address": "30 Phạm Ngọc Thạch, Ward, Quận 3, Thành phố Hồ Chí Minh, Việt Nam",
    "rating": 4.2,
    "reviews": 106,
    "phone": "+84 28 3827 2366",
    "website": "http://www.cmi-vietnam.com/",
    "category": "Trung tâm y tế",
    "city": "Ho Chi Minh City",
    "lat": 10.784846,
    "lng": 106.69422,
    "source": "serpapi:trị liệu CBT"
  },
  {
    "name": "DR. PEPPER - Vương Quốc Hạnh Phúc",
    "address": "37 Lê Văn Miến, Thảo Điền, Quận 2, Thành phố Hồ Chí Minh, Việt Nam",
    "rating": 4.2,
    "reviews": 16,
    "phone": "+84 866 204 337",
    "website": "http://vuongquochanhphuc.vn/",
    "category": "Bác sĩ tâm thần học",
    "city": "Ho Chi Minh City",
    "lat": 10.8055354,
    "lng": 106.7339798,
    "source": "serpapi:psychiatrist"
  },
  {
    "name": "Viện Y dược học dân tộc Thành phố Hồ Chí Minh",
    "address": "273 275, 273 Đ. Nguyễn Văn Trỗi, Phường 10, Phú Nhuận, Thành phố Hồ Chí Minh 70000, Việt Nam",
    "rating": 4.0,
    "reviews": 424,
    "phone": "+84 28 3844 3047",
    "website": "http://vienydhdt.gov.vn/",
    "category": "Bệnh viện",
    "city": "Ho Chi Minh City",
    "lat": 10.797711,
    "lng": 106.67137679999999,
    "source": "serpapi:psychiatrist"
  },
  {
    "name": "Trung Tâm Vật Lý Trị liệu",
    "address": "177 Đ. Nguyễn Biểu, Phường 2, Quận 5, Thành phố Hồ Chí Minh, Việt Nam",
    "rating": 4.0,
    "reviews": 2,
    "phone": "+84 28 3836 6257",
    "website": null,
    "category": "Phòng khám vật lý trị liệu",
    "city": "Ho Chi Minh City",
    "lat": 10.756773299999999,
    "lng": 106.6832665,
    "source": "serpapi:trị liệu tâm lý"
  },
  {
    "name": "Phòng Khám Tâm lý -Tâm thần kinh- Bs CK1 Nguyễn Thị Giang",
    "address": "139 Số 8, Tân Thuận Đông, Quận 7, Thành phố Hồ Chí Minh, Việt Nam",
    "rating": 3.9,
    "reviews": 22,
    "phone": "+84 918 008 520",
    "website": "http://phongkhamtamlytamthan.com/",
    "category": "Dịch vụ sức khỏe tâm thần",
    "city": "Ho Chi Minh City",
    "lat": 10.7448102,
    "lng": 106.73361,
    "source": "serpapi:bác sĩ tâm thần"
  },
  {
    "name": "Phòng Khám Chuyên Khoa Tâm Thần",
    "address": "14 Đ. Phạm Đình Hổ, Phường 1, Quận 6, Thành phố Hồ Chí Minh, Việt Nam",
    "rating": 3.8,
    "reviews": 8,
    "phone": "+84 28 3855 8550",
    "website": null,
    "category": "Phòng khám chuyên khoa",
    "city": "Ho Chi Minh City",
    "lat": 10.7470124,
    "lng": 106.64971639999999,
    "source": "serpapi:bác sĩ tâm thần"
  },
  {
    "name": "International Center for Cognitive Development",
    "address": "191 Nguyễn Văn Hưởng, Thảo Điền, Thủ Đức, Thành phố Hồ Chí Minh, Việt Nam",
    "rating": 3.1,
    "reviews": 7,
    "phone": "+84 965 729 346",
    "website": "https://iccd.info/",
    "category": "Nhà tư vấn sức khỏe",
    "city": "Ho Chi Minh City",
    "lat": 10.8172322,
    "lng": 106.732551,
    "source": "serpapi:psychologist"
  },
  {
    "name": "Viện Tâm Lý Việt - Pháp - Hồ Chí Minh",
    "address": "Landmark Plus & Landmark 81, 720A Điện Biên Phủ, Vinhomes Tân Cảng, Bình Thạnh, Thành phố Hồ Chí Minh 724000, Việt Nam",
    "rating": 3.0,
    "reviews": 4,
    "phone": "+84 977 729 396",
    "website": "https://tamlyvietphap.vn/",
    "category": "Nhà tâm lý học",
    "city": "Ho Chi Minh City",
    "lat": 10.7948031,
    "lng": 106.719949,
    "source": "serpapi:mental health clinic"
  },
  {
    "name": "Phòng Khám Chuyên Khoa Tâm Thần",
    "address": "3 Đ. Thống Nhất, Phường 10, Gò Vấp, Thành phố Hồ Chí Minh, Việt Nam",
    "rating": 3.0,
    "reviews": 3,
    "phone": null,
    "website": null,
    "category": "Bệnh viện tâm thần",
    "city": "Ho Chi Minh City",
    "lat": 10.8343058,
    "lng": 106.66420679999999,
    "source": "serpapi:bác sĩ tâm thần"
  },
  {
    "name": "Phòng Khám Tư Nhân - Bs Lê Quốc Nam",
    "address": "5/35 Nơ Trang Long, Phường Gia Định, Bình Thạnh, Thành phố Hồ Chí Minh, Việt Nam",
    "rating": 2.8,
    "reviews": 24,
    "phone": "+84 768 787 076",
    "website": null,
    "category": "Phòng khám",
    "city": "Ho Chi Minh City",
    "lat": 10.805468999999999,
    "lng": 106.6942322,
    "source": "serpapi:phòng khám tâm lý"
  },
  {
    "name": "Phòng Khám Chuyên Khoa Tâm Gia An",
    "address": "122B Trần Đình Xu, Phường Nguyễn Cư Trinh, Quận 1, Thành phố Hồ Chí Minh, Việt Nam",
    "rating": 2.7,
    "reviews": 27,
    "phone": "+84 28 3920 0006",
    "website": "http://tamgiaan.com/",
    "category": "Bệnh viện",
    "city": "Ho Chi Minh City",
    "lat": 10.7624224,
    "lng": 106.68865219999999,
    "source": "serpapi:phòng khám tâm lý"
  },
  {
    "name": "Phòng khám Tâm lý y khoa - Tâm thần kinh Quốc Nam",
    "address": "5/35 Nơ Trang Long, Phường 7, Bình Thạnh, Thành phố Hồ Chí Minh, Việt Nam",
    "rating": 2.6,
    "reviews": 17,
    "phone": "+84 28 3510 3074",
    "website": "http://www.suckhoetamthan.net/",
    "category": "Phòng khám chuyên khoa tâm thần kinh",
    "city": "Ho Chi Minh City",
    "lat": 10.805420999999999,
    "lng": 106.6942452,
    "source": "serpapi:bác sĩ tâm thần"
  },
  {
    "name": "Bệnh viện Tâm Thần Thành phố Hồ Chí Minh",
    "address": "766 Võ Văn Kiệt, Phường 1, Quận 5, Thành phố Hồ Chí Minh, Việt Nam",
    "rating": 2.5,
    "reviews": 203,
    "phone": "+84 28 3923 4675",
    "website": "https://bvtt-tphcm.org.vn/",
    "category": "Bệnh viện tâm thần",
    "city": "Ho Chi Minh City",
    "lat": 10.752481699999999,
    "lng": 106.6783073,
    "source": "serpapi:bác sĩ tâm thần"
  },
  {
    "name": "Phòng Mạch Bác Sĩ Chu Quang An - Chuyên Khoa Tâm Thần",
    "address": "Đ. Lữ Gia/36 Số 16, Phường 15, Quận 11, Thành phố Hồ Chí Minh, Việt Nam",
    "rating": 2.5,
    "reviews": 2,
    "phone": "+84 909 214 267",
    "website": "https://doctogo.vn/co-so-y-te/8bcb80bf-12e1-4793-8ba0-6dbd805b8d18",
    "category": "Dịch vụ sức khỏe tâm thần",
    "city": "Ho Chi Minh City",
    "lat": 10.7712618,
    "lng": 106.65696679999999,
    "source": "serpapi:bác sĩ tâm thần"
  },
  {
    "name": "Viện tâm lý thực hành",
    "address": "36 Nơ Trang Long, Phường 14, Bình Thạnh, Thành phố Hồ Chí Minh, Việt Nam",
    "rating": 2.4,
    "reviews": 5,
    "phone": "+84 837 541 785",
    "website": null,
    "category": "Dịch vụ sức khỏe tâm thần",
    "city": "Ho Chi Minh City",
    "lat": 10.8059126,
    "lng": 106.6951505,
    "source": "serpapi:phòng khám tâm lý"
  },
  {
    "name": "Nhà của Hieu Thuan Tran",
    "address": "126 đường Đ Hưng Thuận 42, Đông Hưng Thuận, Quận 12, Thành phố Hồ Chí Minh 700000, Việt Nam",
    "rating": 2.3,
    "reviews": 3,
    "phone": "+84 965 913 257",
    "website": "https://www.facebook.com/useeeih",
    "category": "Nhà tâm lý học",
    "city": "Ho Chi Minh City",
    "lat": 10.8375781,
    "lng": 106.6226588,
    "source": "serpapi:psychiatrist"
  },
  {
    "name": "Viện Tâm lý Việt - Pháp | Cơ sở Landmark Plus TP.HCM",
    "address": "Toà Landmark Plus, 720A Điện Biên Phủ, Vinhomes Tân Cảng, Bình Thạnh, Thành phố Hồ Chí Minh 717000, Việt Nam",
    "rating": 2.0,
    "reviews": 8,
    "phone": "+84 977 729 396",
    "website": "https://tamlyvietphap.vn/",
    "category": "Nhà tâm lý học",
    "city": "Ho Chi Minh City",
    "lat": 10.7948738,
    "lng": 106.71996109999999,
    "source": "serpapi:trị liệu CBT"
  },
  {
    "name": "Khoa Tâm lý",
    "address": "QPJ3+57J, Lý Tự Trọng, Bến Nghé, Quận 1, Thành phố Hồ Chí Minh, Việt Nam",
    "rating": 2.0,
    "reviews": 1,
    "phone": null,
    "website": null,
    "category": "Bác sĩ chuyên khoa tâm lý trẻ em",
    "city": "Ho Chi Minh City",
    "lat": 10.7804571,
    "lng": 106.7031445,
    "source": "serpapi:phòng khám tâm lý"
  },
  {
    "name": "Saigon Psychology & Co",
    "address": "190 Nguyễn Văn Hưởng, Thảo Điền, Thủ Đức, Thành phố Hồ Chí Minh 700000, Việt Nam",
    "rating": 1.0,
    "reviews": 1,
    "phone": "+84 798 263 167",
    "website": "http://www.saigonpsychology.com/",
    "category": "Nhà tâm lý học",
    "city": "Ho Chi Minh City",
    "lat": 10.816176299999999,
    "lng": 106.7307893,
    "source": "serpapi:psychologist"
  },
  {
    "name": "Saigon Therapy",
    "address": "The Vista An Phú Tower, 628C Võ Nguyên Giáp, An Phú, Thủ Đức, Thành phố Hồ Chí Minh 700000, Việt Nam",
    "rating": 1.0,
    "reviews": 1,
    "phone": "+84 961 045 800",
    "website": "http://saigontherapy.com/",
    "category": "Người chữa bệnh bằng liệu pháp tâm lý",
    "city": "Ho Chi Minh City",
    "lat": 10.8054204,
    "lng": 106.75173099999999,
    "source": "serpapi:counseling center"
  },
  {
    "name": "Tâm Lý Việt An",
    "address": "1 Song Hành, An Phú, Thủ Đức, Thành phố Hồ Chí Minh 72300, Việt Nam",
    "rating": 1.0,
    "reviews": 1,
    "phone": "+84 814 841 563",
    "website": null,
    "category": "Nhà tâm lý học",
    "city": "Ho Chi Minh City",
    "lat": 10.801442,
    "lng": 106.7471458,
    "source": "serpapi:trị liệu CBT"
  },
  {
    "name": "Counselling with Naomi",
    "address": "Nguyễn Thanh Sơn, Phường Thạnh Mỹ Lợi, Thủ Đức, Thành phố Hồ Chí Minh 70000, Việt Nam",
    "rating": null,
    "reviews": null,
    "phone": "+84 335 425 211",
    "website": "http://www.counsellingwithnaomi.com/",
    "category": "Người chữa bệnh bằng liệu pháp tâm lý",
    "city": "Ho Chi Minh City",
    "lat": 10.775177699999999,
    "lng": 106.7558018,
    "source": "serpapi:counseling center"
  },
  {
    "name": "Dr.PhamMinhTriet",
    "address": "123, Việt Nam",
    "rating": null,
    "reviews": null,
    "phone": null,
    "website": "https://drphamminhtriet.com/",
    "category": "Bác sĩ chuyên khoa tâm lý trẻ em",
    "city": "Ho Chi Minh City",
    "lat": 10.8230989,
    "lng": 106.62966379999999,
    "source": "serpapi:psychiatrist"
  },
  {
    "name": "Janak Counselling",
    "address": "Rose, 1 188B F3, 402 Nguyễn Văn Hưởng, Thảo Điền, Thủ Đức, Thành phố Hồ Chí Minh, Việt Nam",
    "rating": null,
    "reviews": null,
    "phone": null,
    "website": "https://www.janakcounselling.com/",
    "category": "Nhà tư vấn",
    "city": "Ho Chi Minh City",
    "lat": 10.815345299999999,
    "lng": 106.73055199999999,
    "source": "serpapi:counseling center"
  },
  {
    "name": "New Moon Therapist Psychological Branch",
    "address": "29 Phan Xích Long, Phường 4, Phú Nhuận, Thành phố Hồ Chí Minh, Việt Nam",
    "rating": null,
    "reviews": null,
    "phone": null,
    "website": null,
    "category": "Tư vấn viên",
    "city": "Ho Chi Minh City",
    "lat": 10.8021458,
    "lng": 106.6822686,
    "source": "serpapi:psychologist"
  },
  {
    "name": "Phòng Khám Tâm Thần",
    "address": "RMP4+W59, Đ. Quang Trung, Phường 8, Gò Vấp, Thành phố Hồ Chí Minh, Việt Nam",
    "rating": null,
    "reviews": null,
    "phone": null,
    "website": null,
    "category": "Bác sĩ",
    "city": "Ho Chi Minh City",
    "lat": 10.837284799999999,
    "lng": 106.65549949999999,
    "source": "serpapi:bác sĩ tâm thần"
  },
  {
    "name": "Phòng Tham vấn Trị liệu Tâm Lý Tranquil",
    "address": "158 Nguyễn Văn Thủ, Đa Kao, Quận 1, Thành phố Hồ Chí Minh, Việt Nam",
    "rating": null,
    "reviews": null,
    "phone": null,
    "website": "http://www.tamly.org/",
    "category": "Nhà tâm lý học",
    "city": "Ho Chi Minh City",
    "lat": 10.787799399999999,
    "lng": 106.6969218,
    "source": "serpapi:trị liệu tâm lý"
  },
  {
    "name": "TAM AN Psychotherapy and Counseling Center",
    "address": "4 Lý Văn Phức, Phường Tân Định, Dist.1, Thành phố Hồ Chí Minh 700000, Việt Nam",
    "rating": null,
    "reviews": null,
    "phone": null,
    "website": "http://fb.me/taman.official",
    "category": "Dịch vụ sức khỏe tâm thần",
    "city": "Ho Chi Minh City",
    "lat": 10.7907966,
    "lng": 106.6944221,
    "source": "serpapi:mental health clinic"
  }
]